[
  {
    "county_fips": "02020",
    "county": "Anchorage Municipality",
    "state": "AK",
    "week": "2026-03-07",
    "cumulative_cases": 0.0,
    "new_cases_week": 0.0,
    "state_abbr": "AK",
    "centroid_lat": 61.17425,
    "centroid_lon": -149.284329,
    "horizon_weeks": 1,
    "forecast_week": "2026-03-14",
    "expected_growth_abs": 0.0,
    "expected_growth_pct": 0.0,
    "risk_new_cases_county": 0.0,
    "risk_score": 0.13900000000000007
  },
  {
    "county_fips": "02122",
    "county": "Kenai Peninsula Borough",
    "state": "AK",
    "week": "2026-03-07",
    "cumulative_cases": 0.0,
    "new_cases_week": 0.0,
    "state_abbr": "AK",
    "centroid_lat": 60.366668,
    "centroid_lon": -152.322283,
    "horizon_weeks": 1,
    "forecast_week": "2026-03-14",
    "expected_growth_abs": 0.0,
    "expected_growth_pct": 0.0,
    "risk_new_cases_county": 0.0,
    "risk_score": 0.13900000000000007
  },
  {
    "county_fips": "04005",
    "county": "Coconino County",
    "state": "AZ",
    "week": "2026-03-07",
    "cumulative_cases": 0.0,
    "new_cases_week": 0.0,
    "state_abbr": "AZ",
    "centroid_lat": 35.829692,
    "centroid_lon": -111.773728,
    "horizon_weeks": 1,
    "forecast_week": "2026-03-14",
    "expected_growth_abs": 0.0,
    "expected_growth_pct": 0.0,
    "risk_new_cases_county": 0.0,
    "risk_score": 0.09849999999999995
  },
  {
    "county_fips": "04013",
    "county": "Maricopa County",
    "state": "AZ",
    "week": "2026-03-07",
    "cumulative_cases": 0.0,
    "new_cases_week": 0.0,
    "state_abbr": "AZ",
    "centroid_lat": 33.345176,
    "centroid_lon": -112.49893,
    "horizon_weeks": 1,
    "forecast_week": "2026-03-14",
    "expected_growth_abs": 0.0,
    "expected_growth_pct": 0.0,
    "risk_new_cases_county": 0.0,
    "risk_score": 0.09849999999999995
  },
  {
    "county_fips": "04015",
    "county": "Mohave County",
    "state": "AZ",
    "week": "2026-03-07",
    "cumulative_cases": 0.0,
    "new_cases_week": 0.0,
    "state_abbr": "AZ",
    "centroid_lat": 35.717705,
    "centroid_lon": -113.749689,
    "horizon_weeks": 1,
    "forecast_week": "2026-03-14",
    "expected_growth_abs": 0.0,
    "expected_growth_pct": 0.0,
    "risk_new_cases_county": 0.0,
    "risk_score": 0.09849999999999995
  },
  {
    "county_fips": "04017",
    "county": "Navajo County",
    "state": "AZ",
    "week": "2026-03-07",
    "cumulative_cases": 0.0,
    "new_cases_week": 0.0,
    "state_abbr": "AZ",
    "centroid_lat": 35.390785,
    "centroid_lon": -110.321025,
    "horizon_weeks": 1,
    "forecast_week": "2026-03-14",
    "expected_growth_abs": 0.0,
    "expected_growth_pct": 0.0,
    "risk_new_cases_county": 0.0,
    "risk_score": 0.09849999999999995
  },
  {
    "county_fips": "04019",
    "county": "Pima County",
    "state": "AZ",
    "week": "2026-03-07",
    "cumulative_cases": 0.0,
    "new_cases_week": 0.0,
    "state_abbr": "AZ",
    "centroid_lat": 32.128038,
    "centroid_lon": -111.783657,
    "horizon_weeks": 1,
    "forecast_week": "2026-03-14",
    "expected_growth_abs": 0.0,
    "expected_growth_pct": 0.0,
    "risk_new_cases_county": 0.0,
    "risk_score": 0.09849999999999995
  },
  {
    "county_fips": "04021",
    "county": "Pinal County",
    "state": "AZ",
    "week": "2026-03-07",
    "cumulative_cases": 0.0,
    "new_cases_week": 0.0,
    "state_abbr": "AZ",
    "centroid_lat": 32.918521,
    "centroid_lon": -111.366339,
    "horizon_weeks": 1,
    "forecast_week": "2026-03-14",
    "expected_growth_abs": 0.0,
    "expected_growth_pct": 0.0,
    "risk_new_cases_county": 0.0,
    "risk_score": 0.09849999999999995
  },
  {
    "county_fips": "05007",
    "county": "Benton County",
    "state": "AR",
    "week": "2026-03-07",
    "cumulative_cases": 0.0,
    "new_cases_week": 0.0,
    "state_abbr": "AR",
    "centroid_lat": 36.337819,
    "centroid_lon": -94.256298,
    "horizon_weeks": 1,
    "forecast_week": "2026-03-14",
    "expected_growth_abs": 0.0,
    "expected_growth_pct": 0.0,
    "risk_new_cases_county": 0.0,
    "risk_score": 0.06950000000000003
  },
  {
    "county_fips": "05045",
    "county": "Faulkner County",
    "state": "AR",
    "week": "2026-03-07",
    "cumulative_cases": 0.0,
    "new_cases_week": 0.0,
    "state_abbr": "AR",
    "centroid_lat": 35.146548,
    "centroid_lon": -92.336928,
    "horizon_weeks": 1,
    "forecast_week": "2026-03-14",
    "expected_growth_abs": 0.0,
    "expected_growth_pct": 0.0,
    "risk_new_cases_county": 0.0,
    "risk_score": 0.06950000000000003
  },
  {
    "county_fips": "05125",
    "county": "Saline County",
    "state": "AR",
    "week": "2026-03-07",
    "cumulative_cases": 0.0,
    "new_cases_week": 0.0,
    "state_abbr": "AR",
    "centroid_lat": 34.648525,
    "centroid_lon": -92.674463,
    "horizon_weeks": 1,
    "forecast_week": "2026-03-14",
    "expected_growth_abs": 0.0,
    "expected_growth_pct": 0.0,
    "risk_new_cases_county": 0.0,
    "risk_score": 0.06950000000000003
  },
  {
    "county_fips": "06013",
    "county": "Contra Costa County",
    "state": "CA",
    "week": "2026-03-07",
    "cumulative_cases": 0.0,
    "new_cases_week": 0.0,
    "state_abbr": "CA",
    "centroid_lat": 37.919479,
    "centroid_lon": -121.951543,
    "horizon_weeks": 1,
    "forecast_week": "2026-03-14",
    "expected_growth_abs": 0.0,
    "expected_growth_pct": 0.0,
    "risk_new_cases_county": 0.0,
    "risk_score": 0.020000000000000004
  },
  {
    "county_fips": "06019",
    "county": "Fresno County",
    "state": "CA",
    "week": "2026-03-07",
    "cumulative_cases": 0.0,
    "new_cases_week": 0.0,
    "state_abbr": "CA",
    "centroid_lat": 36.761006,
    "centroid_lon": -119.655019,
    "horizon_weeks": 1,
    "forecast_week": "2026-03-14",
    "expected_growth_abs": 0.0,
    "expected_growth_pct": 0.0,
    "risk_new_cases_county": 0.0,
    "risk_score": 0.020000000000000004
  },
  {
    "county_fips": "06037",
    "county": "Los Angeles County",
    "state": "CA",
    "week": "2026-03-07",
    "cumulative_cases": 0.0,
    "new_cases_week": 0.0,
    "state_abbr": "CA",
    "centroid_lat": 34.196398,
    "centroid_lon": -118.261862,
    "horizon_weeks": 1,
    "forecast_week": "2026-03-14",
    "expected_growth_abs": 0.0,
    "expected_growth_pct": 0.0,
    "risk_new_cases_county": 0.0,
    "risk_score": 0.020000000000000004
  },
  {
    "county_fips": "06055",
    "county": "Napa County",
    "state": "CA",
    "week": "2026-03-07",
    "cumulative_cases": 0.0,
    "new_cases_week": 0.0,
    "state_abbr": "CA",
    "centroid_lat": 38.5071,
    "centroid_lon": -122.325904,
    "horizon_weeks": 1,
    "forecast_week": "2026-03-14",
    "expected_growth_abs": 0.0,
    "expected_growth_pct": 0.0,
    "risk_new_cases_county": 0.0,
    "risk_score": 0.020000000000000004
  },
  {
    "county_fips": "06059",
    "county": "Orange County",
    "state": "CA",
    "week": "2026-03-07",
    "cumulative_cases": 0.0,
    "new_cases_week": 0.0,
    "state_abbr": "CA",
    "centroid_lat": 33.675687,
    "centroid_lon": -117.777207,
    "horizon_weeks": 1,
    "forecast_week": "2026-03-14",
    "expected_growth_abs": 0.0,
    "expected_growth_pct": 0.0,
    "risk_new_cases_county": 0.0,
    "risk_score": 0.020000000000000004
  },
  {
    "county_fips": "06061",
    "county": "Placer County",
    "state": "CA",
    "week": "2026-03-07",
    "cumulative_cases": 0.0,
    "new_cases_week": 0.0,
    "state_abbr": "CA",
    "centroid_lat": 39.062032,
    "centroid_lon": -120.722718,
    "horizon_weeks": 1,
    "forecast_week": "2026-03-14",
    "expected_growth_abs": 0.0,
    "expected_growth_pct": 0.0,
    "risk_new_cases_county": 0.0,
    "risk_score": 0.020000000000000004
  },
  {
    "county_fips": "06065",
    "county": "Riverside County",
    "state": "CA",
    "week": "2026-03-07",
    "cumulative_cases": 0.0,
    "new_cases_week": 0.0,
    "state_abbr": "CA",
    "centroid_lat": 33.729828,
    "centroid_lon": -116.002239,
    "horizon_weeks": 1,
    "forecast_week": "2026-03-14",
    "expected_growth_abs": 0.0,
    "expected_growth_pct": 0.0,
    "risk_new_cases_county": 0.0,
    "risk_score": 0.020000000000000004
  },
  {
    "county_fips": "06067",
    "county": "Sacramento County",
    "state": "CA",
    "week": "2026-03-07",
    "cumulative_cases": 0.0,
    "new_cases_week": 0.0,
    "state_abbr": "CA",
    "centroid_lat": 38.450136,
    "centroid_lon": -121.344329,
    "horizon_weeks": 1,
    "forecast_week": "2026-03-14",
    "expected_growth_abs": 0.0,
    "expected_growth_pct": 0.0,
    "risk_new_cases_county": 0.0,
    "risk_score": 0.020000000000000004
  },
  {
    "county_fips": "06073",
    "county": "San Diego County",
    "state": "CA",
    "week": "2026-03-07",
    "cumulative_cases": 0.0,
    "new_cases_week": 0.0,
    "state_abbr": "CA",
    "centroid_lat": 33.023604,
    "centroid_lon": -116.776117,
    "horizon_weeks": 1,
    "forecast_week": "2026-03-14",
    "expected_growth_abs": 0.0,
    "expected_growth_pct": 0.0,
    "risk_new_cases_county": 0.0,
    "risk_score": 0.020000000000000004
  },
  {
    "county_fips": "06079",
    "county": "San Luis Obispo County",
    "state": "CA",
    "week": "2026-03-07",
    "cumulative_cases": 0.0,
    "new_cases_week": 0.0,
    "state_abbr": "CA",
    "centroid_lat": 35.388189,
    "centroid_lon": -120.448897,
    "horizon_weeks": 1,
    "forecast_week": "2026-03-14",
    "expected_growth_abs": 0.0,
    "expected_growth_pct": 0.0,
    "risk_new_cases_county": 0.0,
    "risk_score": 0.020000000000000004
  },
  {
    "county_fips": "06081",
    "county": "San Mateo County",
    "state": "CA",
    "week": "2026-03-07",
    "cumulative_cases": 0.0,
    "new_cases_week": 0.0,
    "state_abbr": "CA",
    "centroid_lat": 37.414672,
    "centroid_lon": -122.371546,
    "horizon_weeks": 1,
    "forecast_week": "2026-03-14",
    "expected_growth_abs": 0.0,
    "expected_growth_pct": 0.0,
    "risk_new_cases_county": 0.0,
    "risk_score": 0.020000000000000004
  },
  {
    "county_fips": "06085",
    "county": "Santa Clara County",
    "state": "CA",
    "week": "2026-03-07",
    "cumulative_cases": 0.0,
    "new_cases_week": 0.0,
    "state_abbr": "CA",
    "centroid_lat": 37.221614,
    "centroid_lon": -121.68954,
    "horizon_weeks": 1,
    "forecast_week": "2026-03-14",
    "expected_growth_abs": 0.0,
    "expected_growth_pct": 0.0,
    "risk_new_cases_county": 0.0,
    "risk_score": 0.020000000000000004
  },
  {
    "county_fips": "06089",
    "county": "Shasta County",
    "state": "CA",
    "week": "2026-03-07",
    "cumulative_cases": 0.0,
    "new_cases_week": 0.0,
    "state_abbr": "CA",
    "centroid_lat": 40.760514,
    "centroid_lon": -122.043556,
    "horizon_weeks": 1,
    "forecast_week": "2026-03-14",
    "expected_growth_abs": 0.0,
    "expected_growth_pct": 0.0,
    "risk_new_cases_county": 0.0,
    "risk_score": 0.020000000000000004
  },
  {
    "county_fips": "06107",
    "county": "Tulare County",
    "state": "CA",
    "week": "2026-03-07",
    "cumulative_cases": 0.0,
    "new_cases_week": 0.0,
    "state_abbr": "CA",
    "centroid_lat": 36.228834,
    "centroid_lon": -118.781055,
    "horizon_weeks": 1,
    "forecast_week": "2026-03-14",
    "expected_growth_abs": 0.0,
    "expected_growth_pct": 0.0,
    "risk_new_cases_county": 0.0,
    "risk_score": 0.020000000000000004
  },
  {
    "county_fips": "06109",
    "county": "Tuolumne County",
    "state": "CA",
    "week": "2026-03-07",
    "cumulative_cases": 0.0,
    "new_cases_week": 0.0,
    "state_abbr": "CA",
    "centroid_lat": 38.021434,
    "centroid_lon": -119.964733,
    "horizon_weeks": 1,
    "forecast_week": "2026-03-14",
    "expected_growth_abs": 0.0,
    "expected_growth_pct": 0.0,
    "risk_new_cases_county": 0.0,
    "risk_score": 0.020000000000000004
  },
  {
    "county_fips": "06113",
    "county": "Yolo County",
    "state": "CA",
    "week": "2026-03-07",
    "cumulative_cases": 0.0,
    "new_cases_week": 0.0,
    "state_abbr": "CA",
    "centroid_lat": 38.679609,
    "centroid_lon": -121.90275,
    "horizon_weeks": 1,
    "forecast_week": "2026-03-14",
    "expected_growth_abs": 0.0,
    "expected_growth_pct": 0.0,
    "risk_new_cases_county": 0.0,
    "risk_score": 0.020000000000000004
  },
  {
    "county_fips": "08001",
    "county": "Adams County",
    "state": "CO",
    "week": "2026-03-07",
    "cumulative_cases": 0.0,
    "new_cases_week": 0.0,
    "state_abbr": "CO",
    "centroid_lat": 39.874325,
    "centroid_lon": -104.331872,
    "horizon_weeks": 1,
    "forecast_week": "2026-03-14",
    "expected_growth_abs": 0.0,
    "expected_growth_pct": 0.0,
    "risk_new_cases_county": 0.0,
    "risk_score": 0.08099999999999995
  },
  {
    "county_fips": "08005",
    "county": "Arapahoe County",
    "state": "CO",
    "week": "2026-03-07",
    "cumulative_cases": 0.0,
    "new_cases_week": 0.0,
    "state_abbr": "CO",
    "centroid_lat": 39.644554,
    "centroid_lon": -104.331706,
    "horizon_weeks": 1,
    "forecast_week": "2026-03-14",
    "expected_growth_abs": 0.0,
    "expected_growth_pct": 0.0,
    "risk_new_cases_county": 0.0,
    "risk_score": 0.08099999999999995
  },
  {
    "county_fips": "08007",
    "county": "Archuleta County",
    "state": "CO",
    "week": "2026-03-07",
    "cumulative_cases": 0.0,
    "new_cases_week": 0.0,
    "state_abbr": "CO",
    "centroid_lat": 37.202395,
    "centroid_lon": -107.050863,
    "horizon_weeks": 1,
    "forecast_week": "2026-03-14",
    "expected_growth_abs": 0.0,
    "expected_growth_pct": 0.0,
    "risk_new_cases_county": 0.0,
    "risk_score": 0.08099999999999995
  },
  {
    "county_fips": "08013",
    "county": "Boulder County",
    "state": "CO",
    "week": "2026-03-07",
    "cumulative_cases": 0.0,
    "new_cases_week": 0.0,
    "state_abbr": "CO",
    "centroid_lat": 40.094971,
    "centroid_lon": -105.39771,
    "horizon_weeks": 1,
    "forecast_week": "2026-03-14",
    "expected_growth_abs": 0.0,
    "expected_growth_pct": 0.0,
    "risk_new_cases_county": 0.0,
    "risk_score": 0.08099999999999995
  },
  {
    "county_fips": "08014",
    "county": "Broomfield County",
    "state": "CO",
    "week": "2026-03-07",
    "cumulative_cases": 0.0,
    "new_cases_week": 0.0,
    "state_abbr": "CO",
    "centroid_lat": 39.953877,
    "centroid_lon": -105.050898,
    "horizon_weeks": 1,
    "forecast_week": "2026-03-14",
    "expected_growth_abs": 0.0,
    "expected_growth_pct": 0.0,
    "risk_new_cases_county": 0.0,
    "risk_score": 0.08099999999999995
  },
  {
    "county_fips": "08031",
    "county": "Denver County",
    "state": "CO",
    "week": "2026-03-07",
    "cumulative_cases": 0.0,
    "new_cases_week": 0.0,
    "state_abbr": "CO",
    "centroid_lat": 39.76185,
    "centroid_lon": -104.881105,
    "horizon_weeks": 1,
    "forecast_week": "2026-03-14",
    "expected_growth_abs": 0.0,
    "expected_growth_pct": 0.0,
    "risk_new_cases_county": 0.0,
    "risk_score": 0.08099999999999995
  },
  {
    "county_fips": "08041",
    "county": "El Paso County",
    "state": "CO",
    "week": "2026-03-07",
    "cumulative_cases": 0.0,
    "new_cases_week": 0.0,
    "state_abbr": "CO",
    "centroid_lat": 38.8311,
    "centroid_lon": -104.527681,
    "horizon_weeks": 1,
    "forecast_week": "2026-03-14",
    "expected_growth_abs": 0.0,
    "expected_growth_pct": 0.0,
    "risk_new_cases_county": 0.0,
    "risk_score": 0.08099999999999995
  },
  {
    "county_fips": "08077",
    "county": "Mesa County",
    "state": "CO",
    "week": "2026-03-07",
    "cumulative_cases": 0.0,
    "new_cases_week": 0.0,
    "state_abbr": "CO",
    "centroid_lat": 39.019524,
    "centroid_lon": -108.460571,
    "horizon_weeks": 1,
    "forecast_week": "2026-03-14",
    "expected_growth_abs": 0.0,
    "expected_growth_pct": 0.0,
    "risk_new_cases_county": 0.0,
    "risk_score": 0.08099999999999995
  },
  {
    "county_fips": "08083",
    "county": "Montezuma County",
    "state": "CO",
    "week": "2026-03-07",
    "cumulative_cases": 0.0,
    "new_cases_week": 0.0,
    "state_abbr": "CO",
    "centroid_lat": 37.338025,
    "centroid_lon": -108.595786,
    "horizon_weeks": 1,
    "forecast_week": "2026-03-14",
    "expected_growth_abs": 0.0,
    "expected_growth_pct": 0.0,
    "risk_new_cases_county": 0.0,
    "risk_score": 0.08099999999999995
  },
  {
    "county_fips": "08101",
    "county": "Pueblo County",
    "state": "CO",
    "week": "2026-03-07",
    "cumulative_cases": 0.0,
    "new_cases_week": 0.0,
    "state_abbr": "CO",
    "centroid_lat": 38.162765,
    "centroid_lon": -104.484668,
    "horizon_weeks": 1,
    "forecast_week": "2026-03-14",
    "expected_growth_abs": 0.0,
    "expected_growth_pct": 0.0,
    "risk_new_cases_county": 0.0,
    "risk_score": 0.08099999999999995
  },
  {
    "county_fips": "08123",
    "county": "Weld County",
    "state": "CO",
    "week": "2026-03-07",
    "cumulative_cases": 0.0,
    "new_cases_week": 0.0,
    "state_abbr": "CO",
    "centroid_lat": 40.555961,
    "centroid_lon": -104.383666,
    "horizon_weeks": 1,
    "forecast_week": "2026-03-14",
    "expected_growth_abs": 0.0,
    "expected_growth_pct": 0.0,
    "risk_new_cases_county": 0.0,
    "risk_score": 0.08099999999999995
  },
  {
    "county_fips": "09170",
    "county": "South Central Connecticut Planning Region",
    "state": "CT",
    "week": "2026-03-07",
    "cumulative_cases": 0.0,
    "new_cases_week": 0.0,
    "state_abbr": "CT",
    "centroid_lat": 41.290167,
    "centroid_lon": -72.837024,
    "horizon_weeks": 1,
    "forecast_week": "2026-03-14",
    "expected_growth_abs": 0.0,
    "expected_growth_pct": 0.0,
    "risk_new_cases_county": 0.0,
    "risk_score": 0.010999999999999944
  },
  {
    "county_fips": "11001",
    "county": "District of Columbia",
    "state": "DC",
    "week": "2026-03-07",
    "cumulative_cases": 0.0,
    "new_cases_week": 0.0,
    "state_abbr": "DC",
    "centroid_lat": 38.904243,
    "centroid_lon": -77.016524,
    "horizon_weeks": 1,
    "forecast_week": "2026-03-14",
    "expected_growth_abs": 0.0,
    "expected_growth_pct": 0.0,
    "risk_new_cases_county": 0.0,
    "risk_score": 0.048499999999999946
  },
  {
    "county_fips": "12001",
    "county": "Alachua County",
    "state": "FL",
    "week": "2026-03-07",
    "cumulative_cases": 0.0,
    "new_cases_week": 0.0,
    "state_abbr": "FL",
    "centroid_lat": 29.67574,
    "centroid_lon": -82.357221,
    "horizon_weeks": 1,
    "forecast_week": "2026-03-14",
    "expected_growth_abs": 0.0,
    "expected_growth_pct": 0.0,
    "risk_new_cases_county": 0.0,
    "risk_score": 0.08150000000000007
  },
  {
    "county_fips": "12011",
    "county": "Broward County",
    "state": "FL",
    "week": "2026-03-07",
    "cumulative_cases": 0.0,
    "new_cases_week": 0.0,
    "state_abbr": "FL",
    "centroid_lat": 26.193535,
    "centroid_lon": -80.476683,
    "horizon_weeks": 1,
    "forecast_week": "2026-03-14",
    "expected_growth_abs": 0.0,
    "expected_growth_pct": 0.0,
    "risk_new_cases_county": 0.0,
    "risk_score": 0.08150000000000007
  },
  {
    "county_fips": "12021",
    "county": "Collier County",
    "state": "FL",
    "week": "2026-03-07",
    "cumulative_cases": 0.0,
    "new_cases_week": 0.0,
    "state_abbr": "FL",
    "centroid_lat": 26.118786,
    "centroid_lon": -81.400955,
    "horizon_weeks": 1,
    "forecast_week": "2026-03-14",
    "expected_growth_abs": 0.0,
    "expected_growth_pct": 0.0,
    "risk_new_cases_county": 0.0,
    "risk_score": 0.08150000000000007
  },
  {
    "county_fips": "12031",
    "county": "Duval County",
    "state": "FL",
    "week": "2026-03-07",
    "cumulative_cases": 0.0,
    "new_cases_week": 0.0,
    "state_abbr": "FL",
    "centroid_lat": 30.335245,
    "centroid_lon": -81.648113,
    "horizon_weeks": 1,
    "forecast_week": "2026-03-14",
    "expected_growth_abs": 0.0,
    "expected_growth_pct": 0.0,
    "risk_new_cases_county": 0.0,
    "risk_score": 0.08150000000000007
  },
  {
    "county_fips": "12033",
    "county": "Escambia County",
    "state": "FL",
    "week": "2026-03-07",
    "cumulative_cases": 0.0,
    "new_cases_week": 0.0,
    "state_abbr": "FL",
    "centroid_lat": 30.529998,
    "centroid_lon": -87.320322,
    "horizon_weeks": 1,
    "forecast_week": "2026-03-14",
    "expected_growth_abs": 0.0,
    "expected_growth_pct": 0.0,
    "risk_new_cases_county": 0.0,
    "risk_score": 0.08150000000000007
  },
  {
    "county_fips": "12057",
    "county": "Hillsborough County",
    "state": "FL",
    "week": "2026-03-07",
    "cumulative_cases": 0.0,
    "new_cases_week": 0.0,
    "state_abbr": "FL",
    "centroid_lat": 27.893154,
    "centroid_lon": -82.379991,
    "horizon_weeks": 1,
    "forecast_week": "2026-03-14",
    "expected_growth_abs": 0.0,
    "expected_growth_pct": 0.0,
    "risk_new_cases_county": 0.0,
    "risk_score": 0.08150000000000007
  },
  {
    "county_fips": "12071",
    "county": "Lee County",
    "state": "FL",
    "week": "2026-03-07",
    "cumulative_cases": 0.0,
    "new_cases_week": 0.0,
    "state_abbr": "FL",
    "centroid_lat": 26.563273,
    "centroid_lon": -81.984182,
    "horizon_weeks": 1,
    "forecast_week": "2026-03-14",
    "expected_growth_abs": 0.0,
    "expected_growth_pct": 0.0,
    "risk_new_cases_county": 0.0,
    "risk_score": 0.08150000000000007
  },
  {
    "county_fips": "12073",
    "county": "Leon County",
    "state": "FL",
    "week": "2026-03-07",
    "cumulative_cases": 0.0,
    "new_cases_week": 0.0,
    "state_abbr": "FL",
    "centroid_lat": 30.45931,
    "centroid_lon": -84.2778,
    "horizon_weeks": 1,
    "forecast_week": "2026-03-14",
    "expected_growth_abs": 0.0,
    "expected_growth_pct": 0.0,
    "risk_new_cases_county": 0.0,
    "risk_score": 0.08150000000000007
  },
  {
    "county_fips": "12081",
    "county": "Manatee County",
    "state": "FL",
    "week": "2026-03-07",
    "cumulative_cases": 0.0,
    "new_cases_week": 0.0,
    "state_abbr": "FL",
    "centroid_lat": 27.475556,
    "centroid_lon": -82.393144,
    "horizon_weeks": 1,
    "forecast_week": "2026-03-14",
    "expected_growth_abs": 0.0,
    "expected_growth_pct": 0.0,
    "risk_new_cases_county": 0.0,
    "risk_score": 0.08150000000000007
  },
  {
    "county_fips": "12086",
    "county": "Miami-Dade County",
    "state": "FL",
    "week": "2026-03-07",
    "cumulative_cases": 0.0,
    "new_cases_week": 0.0,
    "state_abbr": "FL",
    "centroid_lat": 25.616009,
    "centroid_lon": -80.50375,
    "horizon_weeks": 1,
    "forecast_week": "2026-03-14",
    "expected_growth_abs": 0.0,
    "expected_growth_pct": 0.0,
    "risk_new_cases_county": 0.0,
    "risk_score": 0.08150000000000007
  },
  {
    "county_fips": "12091",
    "county": "Okaloosa County",
    "state": "FL",
    "week": "2026-03-07",
    "cumulative_cases": 0.0,
    "new_cases_week": 0.0,
    "state_abbr": "FL",
    "centroid_lat": 30.614325,
    "centroid_lon": -86.59108,
    "horizon_weeks": 1,
    "forecast_week": "2026-03-14",
    "expected_growth_abs": 0.0,
    "expected_growth_pct": 0.0,
    "risk_new_cases_county": 0.0,
    "risk_score": 0.08150000000000007
  },
  {
    "county_fips": "12101",
    "county": "Pasco County",
    "state": "FL",
    "week": "2026-03-07",
    "cumulative_cases": 0.0,
    "new_cases_week": 0.0,
    "state_abbr": "FL",
    "centroid_lat": 28.30474,
    "centroid_lon": -82.502367,
    "horizon_weeks": 1,
    "forecast_week": "2026-03-14",
    "expected_growth_abs": 0.0,
    "expected_growth_pct": 0.0,
    "risk_new_cases_county": 0.0,
    "risk_score": 0.08150000000000007
  },
  {
    "county_fips": "12103",
    "county": "Pinellas County",
    "state": "FL",
    "week": "2026-03-07",
    "cumulative_cases": 0.0,
    "new_cases_week": 0.0,
    "state_abbr": "FL",
    "centroid_lat": 27.905342,
    "centroid_lon": -82.798066,
    "horizon_weeks": 1,
    "forecast_week": "2026-03-14",
    "expected_growth_abs": 0.0,
    "expected_growth_pct": 0.0,
    "risk_new_cases_county": 0.0,
    "risk_score": 0.08150000000000007
  },
  {
    "county_fips": "12109",
    "county": "St. Johns County",
    "state": "FL",
    "week": "2026-03-07",
    "cumulative_cases": 0.0,
    "new_cases_week": 0.0,
    "state_abbr": "FL",
    "centroid_lat": 29.881397,
    "centroid_lon": -81.388282,
    "horizon_weeks": 1,
    "forecast_week": "2026-03-14",
    "expected_growth_abs": 0.0,
    "expected_growth_pct": 0.0,
    "risk_new_cases_county": 0.0,
    "risk_score": 0.08150000000000007
  },
  {
    "county_fips": "13029",
    "county": "Bryan County",
    "state": "GA",
    "week": "2026-03-07",
    "cumulative_cases": 0.0,
    "new_cases_week": 0.0,
    "state_abbr": "GA",
    "centroid_lat": 32.017969,
    "centroid_lon": -81.438543,
    "horizon_weeks": 1,
    "forecast_week": "2026-03-14",
    "expected_growth_abs": 0.0,
    "expected_growth_pct": 0.0,
    "risk_new_cases_county": 0.0,
    "risk_score": 0.09000000000000001
  },
  {
    "county_fips": "13121",
    "county": "Fulton County",
    "state": "GA",
    "week": "2026-03-07",
    "cumulative_cases": 0.0,
    "new_cases_week": 0.0,
    "state_abbr": "GA",
    "centroid_lat": 33.790034,
    "centroid_lon": -84.468182,
    "horizon_weeks": 1,
    "forecast_week": "2026-03-14",
    "expected_growth_abs": 0.0,
    "expected_growth_pct": 0.0,
    "risk_new_cases_county": 0.0,
    "risk_score": 0.09000000000000001
  },
  {
    "county_fips": "15003",
    "county": "Honolulu County",
    "state": "HI",
    "week": "2026-03-07",
    "cumulative_cases": 0.0,
    "new_cases_week": 0.0,
    "state_abbr": "HI",
    "centroid_lat": 21.461365,
    "centroid_lon": -158.201974,
    "horizon_weeks": 1,
    "forecast_week": "2026-03-14",
    "expected_growth_abs": 0.0,
    "expected_growth_pct": 0.0,
    "risk_new_cases_county": 0.0,
    "risk_score": 0.07799999999999997
  },
  {
    "county_fips": "16017",
    "county": "Bonner County",
    "state": "ID",
    "week": "2026-03-07",
    "cumulative_cases": 0.0,
    "new_cases_week": 0.0,
    "state_abbr": "ID",
    "centroid_lat": 48.324634,
    "centroid_lon": -116.62745,
    "horizon_weeks": 1,
    "forecast_week": "2026-03-14",
    "expected_growth_abs": 0.0,
    "expected_growth_pct": 0.0,
    "risk_new_cases_county": 0.0,
    "risk_score": 0.18000000000000002
  },
  {
    "county_fips": "16019",
    "county": "Bonneville County",
    "state": "ID",
    "week": "2026-03-07",
    "cumulative_cases": 0.0,
    "new_cases_week": 0.0,
    "state_abbr": "ID",
    "centroid_lat": 43.395171,
    "centroid_lon": -111.621878,
    "horizon_weeks": 1,
    "forecast_week": "2026-03-14",
    "expected_growth_abs": 0.0,
    "expected_growth_pct": 0.0,
    "risk_new_cases_county": 0.0,
    "risk_score": 0.18000000000000002
  },
  {
    "county_fips": "16021",
    "county": "Boundary County",
    "state": "ID",
    "week": "2026-03-07",
    "cumulative_cases": 0.0,
    "new_cases_week": 0.0,
    "state_abbr": "ID",
    "centroid_lat": 48.773131,
    "centroid_lon": -116.524668,
    "horizon_weeks": 1,
    "forecast_week": "2026-03-14",
    "expected_growth_abs": 0.0,
    "expected_growth_pct": 0.0,
    "risk_new_cases_county": 0.0,
    "risk_score": 0.18000000000000002
  },
  {
    "county_fips": "16027",
    "county": "Canyon County",
    "state": "ID",
    "week": "2026-03-07",
    "cumulative_cases": 0.0,
    "new_cases_week": 0.0,
    "state_abbr": "ID",
    "centroid_lat": 43.625795,
    "centroid_lon": -116.709058,
    "horizon_weeks": 1,
    "forecast_week": "2026-03-14",
    "expected_growth_abs": 0.0,
    "expected_growth_pct": 0.0,
    "risk_new_cases_county": 0.0,
    "risk_score": 0.18000000000000002
  },
  {
    "county_fips": "16055",
    "county": "Kootenai County",
    "state": "ID",
    "week": "2026-03-07",
    "cumulative_cases": 0.0,
    "new_cases_week": 0.0,
    "state_abbr": "ID",
    "centroid_lat": 47.67596,
    "centroid_lon": -116.695861,
    "horizon_weeks": 1,
    "forecast_week": "2026-03-14",
    "expected_growth_abs": 0.0,
    "expected_growth_pct": 0.0,
    "risk_new_cases_county": 0.0,
    "risk_score": 0.18000000000000002
  },
  {
    "county_fips": "16065",
    "county": "Madison County",
    "state": "ID",
    "week": "2026-03-07",
    "cumulative_cases": 0.0,
    "new_cases_week": 0.0,
    "state_abbr": "ID",
    "centroid_lat": 43.788614,
    "centroid_lon": -111.656993,
    "horizon_weeks": 1,
    "forecast_week": "2026-03-14",
    "expected_growth_abs": 0.0,
    "expected_growth_pct": 0.0,
    "risk_new_cases_county": 0.0,
    "risk_score": 0.18000000000000002
  },
  {
    "county_fips": "17031",
    "county": "Cook County",
    "state": "IL",
    "week": "2026-03-07",
    "cumulative_cases": 0.0,
    "new_cases_week": 0.0,
    "state_abbr": "IL",
    "centroid_lat": 41.894294,
    "centroid_lon": -87.645455,
    "horizon_weeks": 1,
    "forecast_week": "2026-03-14",
    "expected_growth_abs": 0.0,
    "expected_growth_pct": 0.0,
    "risk_new_cases_county": 0.0,
    "risk_score": 0.05450000000000003
  },
  {
    "county_fips": "17199",
    "county": "Williamson County",
    "state": "IL",
    "week": "2026-03-07",
    "cumulative_cases": 0.0,
    "new_cases_week": 0.0,
    "state_abbr": "IL",
    "centroid_lat": 37.730353,
    "centroid_lon": -88.930018,
    "horizon_weeks": 1,
    "forecast_week": "2026-03-14",
    "expected_growth_abs": 0.0,
    "expected_growth_pct": 0.0,
    "risk_new_cases_county": 0.0,
    "risk_score": 0.05450000000000003
  },
  {
    "county_fips": "18003",
    "county": "Allen County",
    "state": "IN",
    "week": "2026-03-07",
    "cumulative_cases": 0.0,
    "new_cases_week": 0.0,
    "state_abbr": "IN",
    "centroid_lat": 41.091909,
    "centroid_lon": -85.071791,
    "horizon_weeks": 1,
    "forecast_week": "2026-03-14",
    "expected_growth_abs": 0.0,
    "expected_growth_pct": 0.0,
    "risk_new_cases_county": 0.0,
    "risk_score": 0.05900000000000005
  },
  {
    "county_fips": "18089",
    "county": "Lake County",
    "state": "IN",
    "week": "2026-03-07",
    "cumulative_cases": 0.0,
    "new_cases_week": 0.0,
    "state_abbr": "IN",
    "centroid_lat": 41.472247,
    "centroid_lon": -87.374337,
    "horizon_weeks": 1,
    "forecast_week": "2026-03-14",
    "expected_growth_abs": 0.0,
    "expected_growth_pct": 0.0,
    "risk_new_cases_county": 0.0,
    "risk_score": 0.05900000000000005
  },
  {
    "county_fips": "18133",
    "county": "Putnam County",
    "state": "IN",
    "week": "2026-03-07",
    "cumulative_cases": 0.0,
    "new_cases_week": 0.0,
    "state_abbr": "IN",
    "centroid_lat": 39.665548,
    "centroid_lon": -86.853373,
    "horizon_weeks": 1,
    "forecast_week": "2026-03-14",
    "expected_growth_abs": 0.0,
    "expected_growth_pct": 0.0,
    "risk_new_cases_county": 0.0,
    "risk_score": 0.05900000000000005
  },
  {
    "county_fips": "20069",
    "county": "Gray County",
    "state": "KS",
    "week": "2026-03-07",
    "cumulative_cases": 0.0,
    "new_cases_week": 0.0,
    "state_abbr": "KS",
    "centroid_lat": 37.744513,
    "centroid_lon": -100.451715,
    "horizon_weeks": 1,
    "forecast_week": "2026-03-14",
    "expected_growth_abs": 0.0,
    "expected_growth_pct": 0.0,
    "risk_new_cases_county": 0.0,
    "risk_score": 0.06299999999999997
  },
  {
    "county_fips": "20081",
    "county": "Haskell County",
    "state": "KS",
    "week": "2026-03-07",
    "cumulative_cases": 0.0,
    "new_cases_week": 0.0,
    "state_abbr": "KS",
    "centroid_lat": 37.554979,
    "centroid_lon": -100.879952,
    "horizon_weeks": 1,
    "forecast_week": "2026-03-14",
    "expected_growth_abs": 0.0,
    "expected_growth_pct": 0.0,
    "risk_new_cases_county": 0.0,
    "risk_score": 0.06299999999999997
  },
  {
    "county_fips": "20097",
    "county": "Kiowa County",
    "state": "KS",
    "week": "2026-03-07",
    "cumulative_cases": 0.0,
    "new_cases_week": 0.0,
    "state_abbr": "KS",
    "centroid_lat": 37.561231,
    "centroid_lon": -99.286538,
    "horizon_weeks": 1,
    "forecast_week": "2026-03-14",
    "expected_growth_abs": 0.0,
    "expected_growth_pct": 0.0,
    "risk_new_cases_county": 0.0,
    "risk_score": 0.06299999999999997
  },
  {
    "county_fips": "20145",
    "county": "Pawnee County",
    "state": "KS",
    "week": "2026-03-07",
    "cumulative_cases": 0.0,
    "new_cases_week": 0.0,
    "state_abbr": "KS",
    "centroid_lat": 38.181477,
    "centroid_lon": -99.234772,
    "horizon_weeks": 1,
    "forecast_week": "2026-03-14",
    "expected_growth_abs": 0.0,
    "expected_growth_pct": 0.0,
    "risk_new_cases_county": 0.0,
    "risk_score": 0.06299999999999997
  },
  {
    "county_fips": "20189",
    "county": "Stevens County",
    "state": "KS",
    "week": "2026-03-07",
    "cumulative_cases": 0.0,
    "new_cases_week": 0.0,
    "state_abbr": "KS",
    "centroid_lat": 37.2017,
    "centroid_lon": -101.317268,
    "horizon_weeks": 1,
    "forecast_week": "2026-03-14",
    "expected_growth_abs": 0.0,
    "expected_growth_pct": 0.0,
    "risk_new_cases_county": 0.0,
    "risk_score": 0.06299999999999997
  },
  {
    "county_fips": "21067",
    "county": "Fayette County",
    "state": "KY",
    "week": "2026-03-07",
    "cumulative_cases": 0.0,
    "new_cases_week": 0.0,
    "state_abbr": "KY",
    "centroid_lat": 38.040678,
    "centroid_lon": -84.458272,
    "horizon_weeks": 1,
    "forecast_week": "2026-03-14",
    "expected_growth_abs": 0.0,
    "expected_growth_pct": 0.0,
    "risk_new_cases_county": 0.0,
    "risk_score": 0.07549999999999997
  },
  {
    "county_fips": "21073",
    "county": "Franklin County",
    "state": "KY",
    "week": "2026-03-07",
    "cumulative_cases": 0.0,
    "new_cases_week": 0.0,
    "state_abbr": "KY",
    "centroid_lat": 38.234919,
    "centroid_lon": -84.868786,
    "horizon_weeks": 1,
    "forecast_week": "2026-03-14",
    "expected_growth_abs": 0.0,
    "expected_growth_pct": 0.0,
    "risk_new_cases_county": 0.0,
    "risk_score": 0.07549999999999997
  },
  {
    "county_fips": "21111",
    "county": "Jefferson County",
    "state": "KY",
    "week": "2026-03-07",
    "cumulative_cases": 0.0,
    "new_cases_week": 0.0,
    "state_abbr": "KY",
    "centroid_lat": 38.189532,
    "centroid_lon": -85.657624,
    "horizon_weeks": 1,
    "forecast_week": "2026-03-14",
    "expected_growth_abs": 0.0,
    "expected_growth_pct": 0.0,
    "risk_new_cases_county": 0.0,
    "risk_score": 0.07549999999999997
  },
  {
    "county_fips": "21113",
    "county": "Jessamine County",
    "state": "KY",
    "week": "2026-03-07",
    "cumulative_cases": 0.0,
    "new_cases_week": 0.0,
    "state_abbr": "KY",
    "centroid_lat": 37.873291,
    "centroid_lon": -84.58396,
    "horizon_weeks": 1,
    "forecast_week": "2026-03-14",
    "expected_growth_abs": 0.0,
    "expected_growth_pct": 0.0,
    "risk_new_cases_county": 0.0,
    "risk_score": 0.07549999999999997
  },
  {
    "county_fips": "21219",
    "county": "Todd County",
    "state": "KY",
    "week": "2026-03-07",
    "cumulative_cases": 0.0,
    "new_cases_week": 0.0,
    "state_abbr": "KY",
    "centroid_lat": 36.840338,
    "centroid_lon": -87.183642,
    "horizon_weeks": 1,
    "forecast_week": "2026-03-14",
    "expected_growth_abs": 0.0,
    "expected_growth_pct": 0.0,
    "risk_new_cases_county": 0.0,
    "risk_score": 0.07549999999999997
  },
  {
    "county_fips": "21239",
    "county": "Woodford County",
    "state": "KY",
    "week": "2026-03-07",
    "cumulative_cases": 0.0,
    "new_cases_week": 0.0,
    "state_abbr": "KY",
    "centroid_lat": 38.043103,
    "centroid_lon": -84.748855,
    "horizon_weeks": 1,
    "forecast_week": "2026-03-14",
    "expected_growth_abs": 0.0,
    "expected_growth_pct": 0.0,
    "risk_new_cases_county": 0.0,
    "risk_score": 0.07549999999999997
  },
  {
    "county_fips": "22071",
    "county": "Orleans Parish",
    "state": "LA",
    "week": "2026-03-07",
    "cumulative_cases": 0.0,
    "new_cases_week": 0.0,
    "state_abbr": "LA",
    "centroid_lat": 30.05342,
    "centroid_lon": -89.934502,
    "horizon_weeks": 1,
    "forecast_week": "2026-03-14",
    "expected_growth_abs": 0.0,
    "expected_growth_pct": 0.0,
    "risk_new_cases_county": 0.0,
    "risk_score": 0.052500000000000005
  },
  {
    "county_fips": "23019",
    "county": "Penobscot County",
    "state": "ME",
    "week": "2026-03-07",
    "cumulative_cases": 0.0,
    "new_cases_week": 0.0,
    "state_abbr": "ME",
    "centroid_lat": 45.409284,
    "centroid_lon": -68.666616,
    "horizon_weeks": 1,
    "forecast_week": "2026-03-14",
    "expected_growth_abs": 0.0,
    "expected_growth_pct": 0.0,
    "risk_new_cases_county": 0.0,
    "risk_score": 0.015
  },
  {
    "county_fips": "24027",
    "county": "Howard County",
    "state": "MD",
    "week": "2026-03-07",
    "cumulative_cases": 0.0,
    "new_cases_week": 0.0,
    "state_abbr": "MD",
    "centroid_lat": 39.252264,
    "centroid_lon": -76.924406,
    "horizon_weeks": 1,
    "forecast_week": "2026-03-14",
    "expected_growth_abs": 0.0,
    "expected_growth_pct": 0.0,
    "risk_new_cases_county": 0.0,
    "risk_score": 0.02900000000000006
  },
  {
    "county_fips": "24033",
    "county": "Prince George's County",
    "state": "MD",
    "week": "2026-03-07",
    "cumulative_cases": 0.0,
    "new_cases_week": 0.0,
    "state_abbr": "MD",
    "centroid_lat": 38.829278,
    "centroid_lon": -76.848188,
    "horizon_weeks": 1,
    "forecast_week": "2026-03-14",
    "expected_growth_abs": 0.0,
    "expected_growth_pct": 0.0,
    "risk_new_cases_county": 0.0,
    "risk_score": 0.02900000000000006
  },
  {
    "county_fips": "25025",
    "county": "Suffolk County",
    "state": "MA",
    "week": "2026-03-07",
    "cumulative_cases": 0.0,
    "new_cases_week": 0.0,
    "state_abbr": "MA",
    "centroid_lat": 42.338551,
    "centroid_lon": -71.018253,
    "horizon_weeks": 1,
    "forecast_week": "2026-03-14",
    "expected_growth_abs": 0.0,
    "expected_growth_pct": 0.0,
    "risk_new_cases_county": 0.0,
    "risk_score": 0.023499999999999945
  },
  {
    "county_fips": "26005",
    "county": "Allegan County",
    "state": "MI",
    "week": "2026-03-07",
    "cumulative_cases": 0.0,
    "new_cases_week": 0.0,
    "state_abbr": "MI",
    "centroid_lat": 42.421251,
    "centroid_lon": -86.261403,
    "horizon_weeks": 1,
    "forecast_week": "2026-03-14",
    "expected_growth_abs": 0.0,
    "expected_growth_pct": 0.0,
    "risk_new_cases_county": 0.0,
    "risk_score": 0.07599999999999996
  },
  {
    "county_fips": "26055",
    "county": "Grand Traverse County",
    "state": "MI",
    "week": "2026-03-07",
    "cumulative_cases": 0.0,
    "new_cases_week": 0.0,
    "state_abbr": "MI",
    "centroid_lat": 44.718688,
    "centroid_lon": -85.553848,
    "horizon_weeks": 1,
    "forecast_week": "2026-03-14",
    "expected_growth_abs": 0.0,
    "expected_growth_pct": 0.0,
    "risk_new_cases_county": 0.0,
    "risk_score": 0.07599999999999996
  },
  {
    "county_fips": "26065",
    "county": "Ingham County",
    "state": "MI",
    "week": "2026-03-07",
    "cumulative_cases": 0.0,
    "new_cases_week": 0.0,
    "state_abbr": "MI",
    "centroid_lat": 42.603534,
    "centroid_lon": -84.373811,
    "horizon_weeks": 1,
    "forecast_week": "2026-03-14",
    "expected_growth_abs": 0.0,
    "expected_growth_pct": 0.0,
    "risk_new_cases_county": 0.0,
    "risk_score": 0.07599999999999996
  },
  {
    "county_fips": "26081",
    "county": "Kent County",
    "state": "MI",
    "week": "2026-03-07",
    "cumulative_cases": 0.0,
    "new_cases_week": 0.0,
    "state_abbr": "MI",
    "centroid_lat": 43.032497,
    "centroid_lon": -85.547446,
    "horizon_weeks": 1,
    "forecast_week": "2026-03-14",
    "expected_growth_abs": 0.0,
    "expected_growth_pct": 0.0,
    "risk_new_cases_county": 0.0,
    "risk_score": 0.07599999999999996
  },
  {
    "county_fips": "26099",
    "county": "Macomb County",
    "state": "MI",
    "week": "2026-03-07",
    "cumulative_cases": 0.0,
    "new_cases_week": 0.0,
    "state_abbr": "MI",
    "centroid_lat": 42.671553,
    "centroid_lon": -82.911456,
    "horizon_weeks": 1,
    "forecast_week": "2026-03-14",
    "expected_growth_abs": 0.0,
    "expected_growth_pct": 0.0,
    "risk_new_cases_county": 0.0,
    "risk_score": 0.07599999999999996
  },
  {
    "county_fips": "26103",
    "county": "Marquette County",
    "state": "MI",
    "week": "2026-03-07",
    "cumulative_cases": 0.0,
    "new_cases_week": 0.0,
    "state_abbr": "MI",
    "centroid_lat": 46.656596,
    "centroid_lon": -87.584028,
    "horizon_weeks": 1,
    "forecast_week": "2026-03-14",
    "expected_growth_abs": 0.0,
    "expected_growth_pct": 0.0,
    "risk_new_cases_county": 0.0,
    "risk_score": 0.07599999999999996
  },
  {
    "county_fips": "26117",
    "county": "Montcalm County",
    "state": "MI",
    "week": "2026-03-07",
    "cumulative_cases": 0.0,
    "new_cases_week": 0.0,
    "state_abbr": "MI",
    "centroid_lat": 43.312782,
    "centroid_lon": -85.149468,
    "horizon_weeks": 1,
    "forecast_week": "2026-03-14",
    "expected_growth_abs": 0.0,
    "expected_growth_pct": 0.0,
    "risk_new_cases_county": 0.0,
    "risk_score": 0.07599999999999996
  },
  {
    "county_fips": "26121",
    "county": "Muskegon County",
    "state": "MI",
    "week": "2026-03-07",
    "cumulative_cases": 0.0,
    "new_cases_week": 0.0,
    "state_abbr": "MI",
    "centroid_lat": 43.428739,
    "centroid_lon": -86.420908,
    "horizon_weeks": 1,
    "forecast_week": "2026-03-14",
    "expected_growth_abs": 0.0,
    "expected_growth_pct": 0.0,
    "risk_new_cases_county": 0.0,
    "risk_score": 0.07599999999999996
  },
  {
    "county_fips": "26125",
    "county": "Oakland County",
    "state": "MI",
    "week": "2026-03-07",
    "cumulative_cases": 0.0,
    "new_cases_week": 0.0,
    "state_abbr": "MI",
    "centroid_lat": 42.660452,
    "centroid_lon": -83.38421,
    "horizon_weeks": 1,
    "forecast_week": "2026-03-14",
    "expected_growth_abs": 0.0,
    "expected_growth_pct": 0.0,
    "risk_new_cases_county": 0.0,
    "risk_score": 0.07599999999999996
  },
  {
    "county_fips": "26133",
    "county": "Osceola County",
    "state": "MI",
    "week": "2026-03-07",
    "cumulative_cases": 0.0,
    "new_cases_week": 0.0,
    "state_abbr": "MI",
    "centroid_lat": 43.997552,
    "centroid_lon": -85.322283,
    "horizon_weeks": 1,
    "forecast_week": "2026-03-14",
    "expected_growth_abs": 0.0,
    "expected_growth_pct": 0.0,
    "risk_new_cases_county": 0.0,
    "risk_score": 0.07599999999999996
  },
  {
    "county_fips": "27037",
    "county": "Dakota County",
    "state": "MN",
    "week": "2026-03-07",
    "cumulative_cases": 0.0,
    "new_cases_week": 0.0,
    "state_abbr": "MN",
    "centroid_lat": 44.670893,
    "centroid_lon": -93.062481,
    "horizon_weeks": 1,
    "forecast_week": "2026-03-14",
    "expected_growth_abs": 0.0,
    "expected_growth_pct": 0.0,
    "risk_new_cases_county": 0.0,
    "risk_score": 0.09700000000000003
  },
  {
    "county_fips": "27053",
    "county": "Hennepin County",
    "state": "MN",
    "week": "2026-03-07",
    "cumulative_cases": 0.0,
    "new_cases_week": 0.0,
    "state_abbr": "MN",
    "centroid_lat": 45.006121,
    "centroid_lon": -93.475228,
    "horizon_weeks": 1,
    "forecast_week": "2026-03-14",
    "expected_growth_abs": 0.0,
    "expected_growth_pct": 0.0,
    "risk_new_cases_county": 0.0,
    "risk_score": 0.09700000000000003
  },
  {
    "county_fips": "27109",
    "county": "Olmsted County",
    "state": "MN",
    "week": "2026-03-07",
    "cumulative_cases": 0.0,
    "new_cases_week": 0.0,
    "state_abbr": "MN",
    "centroid_lat": 43.999688,
    "centroid_lon": -92.410155,
    "horizon_weeks": 1,
    "forecast_week": "2026-03-14",
    "expected_growth_abs": 0.0,
    "expected_growth_pct": 0.0,
    "risk_new_cases_county": 0.0,
    "risk_score": 0.09700000000000003
  },
  {
    "county_fips": "27163",
    "county": "Washington County",
    "state": "MN",
    "week": "2026-03-07",
    "cumulative_cases": 0.0,
    "new_cases_week": 0.0,
    "state_abbr": "MN",
    "centroid_lat": 45.037929,
    "centroid_lon": -92.890117,
    "horizon_weeks": 1,
    "forecast_week": "2026-03-14",
    "expected_growth_abs": 0.0,
    "expected_growth_pct": 0.0,
    "risk_new_cases_county": 0.0,
    "risk_score": 0.09700000000000003
  },
  {
    "county_fips": "29039",
    "county": "Cedar County",
    "state": "MO",
    "week": "2026-03-07",
    "cumulative_cases": 0.0,
    "new_cases_week": 0.0,
    "state_abbr": "MO",
    "centroid_lat": 37.733655,
    "centroid_lon": -93.850014,
    "horizon_weeks": 1,
    "forecast_week": "2026-03-14",
    "expected_growth_abs": 0.0,
    "expected_growth_pct": 0.0,
    "risk_new_cases_county": 0.0,
    "risk_score": 0.07599999999999996
  },
  {
    "county_fips": "29095",
    "county": "Jackson County",
    "state": "MO",
    "week": "2026-03-07",
    "cumulative_cases": 0.0,
    "new_cases_week": 0.0,
    "state_abbr": "MO",
    "centroid_lat": 39.005364,
    "centroid_lon": -94.343211,
    "horizon_weeks": 1,
    "forecast_week": "2026-03-14",
    "expected_growth_abs": 0.0,
    "expected_growth_pct": 0.0,
    "risk_new_cases_county": 0.0,
    "risk_score": 0.07599999999999996
  },
  {
    "county_fips": "29143",
    "county": "New Madrid County",
    "state": "MO",
    "week": "2026-03-07",
    "cumulative_cases": 0.0,
    "new_cases_week": 0.0,
    "state_abbr": "MO",
    "centroid_lat": 36.594261,
    "centroid_lon": -89.655948,
    "horizon_weeks": 1,
    "forecast_week": "2026-03-14",
    "expected_growth_abs": 0.0,
    "expected_growth_pct": 0.0,
    "risk_new_cases_county": 0.0,
    "risk_score": 0.07599999999999996
  },
  {
    "county_fips": "29213",
    "county": "Taney County",
    "state": "MO",
    "week": "2026-03-07",
    "cumulative_cases": 0.0,
    "new_cases_week": 0.0,
    "state_abbr": "MO",
    "centroid_lat": 36.649827,
    "centroid_lon": -93.042819,
    "horizon_weeks": 1,
    "forecast_week": "2026-03-14",
    "expected_growth_abs": 0.0,
    "expected_growth_pct": 0.0,
    "risk_new_cases_county": 0.0,
    "risk_score": 0.07599999999999996
  },
  {
    "county_fips": "30013",
    "county": "Cascade County",
    "state": "MT",
    "week": "2026-03-07",
    "cumulative_cases": 0.0,
    "new_cases_week": 0.0,
    "state_abbr": "MT",
    "centroid_lat": 47.316575,
    "centroid_lon": -111.350262,
    "horizon_weeks": 1,
    "forecast_week": "2026-03-14",
    "expected_growth_abs": 0.0,
    "expected_growth_pct": 0.0,
    "risk_new_cases_county": 0.0,
    "risk_score": 0.07500000000000001
  },
  {
    "county_fips": "30029",
    "county": "Flathead County",
    "state": "MT",
    "week": "2026-03-07",
    "cumulative_cases": 0.0,
    "new_cases_week": 0.0,
    "state_abbr": "MT",
    "centroid_lat": 48.295422,
    "centroid_lon": -114.052059,
    "horizon_weeks": 1,
    "forecast_week": "2026-03-14",
    "expected_growth_abs": 0.0,
    "expected_growth_pct": 0.0,
    "risk_new_cases_county": 0.0,
    "risk_score": 0.07500000000000001
  },
  {
    "county_fips": "30031",
    "county": "Gallatin County",
    "state": "MT",
    "week": "2026-03-07",
    "cumulative_cases": 0.0,
    "new_cases_week": 0.0,
    "state_abbr": "MT",
    "centroid_lat": 45.518054,
    "centroid_lon": -111.163921,
    "horizon_weeks": 1,
    "forecast_week": "2026-03-14",
    "expected_growth_abs": 0.0,
    "expected_growth_pct": 0.0,
    "risk_new_cases_county": 0.0,
    "risk_score": 0.07500000000000001
  },
  {
    "county_fips": "30041",
    "county": "Hill County",
    "state": "MT",
    "week": "2026-03-07",
    "cumulative_cases": 0.0,
    "new_cases_week": 0.0,
    "state_abbr": "MT",
    "centroid_lat": 48.631959,
    "centroid_lon": -110.106321,
    "horizon_weeks": 1,
    "forecast_week": "2026-03-14",
    "expected_growth_abs": 0.0,
    "expected_growth_pct": 0.0,
    "risk_new_cases_county": 0.0,
    "risk_score": 0.07500000000000001
  },
  {
    "county_fips": "30049",
    "county": "Lewis and Clark County",
    "state": "MT",
    "week": "2026-03-07",
    "cumulative_cases": 0.0,
    "new_cases_week": 0.0,
    "state_abbr": "MT",
    "centroid_lat": 47.122105,
    "centroid_lon": -112.38289,
    "horizon_weeks": 1,
    "forecast_week": "2026-03-14",
    "expected_growth_abs": 0.0,
    "expected_growth_pct": 0.0,
    "risk_new_cases_county": 0.0,
    "risk_score": 0.07500000000000001
  },
  {
    "county_fips": "30111",
    "county": "Yellowstone County",
    "state": "MT",
    "week": "2026-03-07",
    "cumulative_cases": 0.0,
    "new_cases_week": 0.0,
    "state_abbr": "MT",
    "centroid_lat": 45.936987,
    "centroid_lon": -108.276656,
    "horizon_weeks": 1,
    "forecast_week": "2026-03-14",
    "expected_growth_abs": 0.0,
    "expected_growth_pct": 0.0,
    "risk_new_cases_county": 0.0,
    "risk_score": 0.07500000000000001
  },
  {
    "county_fips": "31109",
    "county": "Lancaster County",
    "state": "NE",
    "week": "2026-03-07",
    "cumulative_cases": 0.0,
    "new_cases_week": 0.0,
    "state_abbr": "NE",
    "centroid_lat": 40.783547,
    "centroid_lon": -96.688658,
    "horizon_weeks": 1,
    "forecast_week": "2026-03-14",
    "expected_growth_abs": 0.0,
    "expected_growth_pct": 0.0,
    "risk_new_cases_county": 0.0,
    "risk_score": 0.045000000000000005
  },
  {
    "county_fips": "31141",
    "county": "Platte County",
    "state": "NE",
    "week": "2026-03-07",
    "cumulative_cases": 0.0,
    "new_cases_week": 0.0,
    "state_abbr": "NE",
    "centroid_lat": 41.576866,
    "centroid_lon": -97.513467,
    "horizon_weeks": 1,
    "forecast_week": "2026-03-14",
    "expected_growth_abs": 0.0,
    "expected_growth_pct": 0.0,
    "risk_new_cases_county": 0.0,
    "risk_score": 0.045000000000000005
  },
  {
    "county_fips": "31161",
    "county": "Sheridan County",
    "state": "NE",
    "week": "2026-03-07",
    "cumulative_cases": 0.0,
    "new_cases_week": 0.0,
    "state_abbr": "NE",
    "centroid_lat": 42.512289,
    "centroid_lon": -102.36828,
    "horizon_weeks": 1,
    "forecast_week": "2026-03-14",
    "expected_growth_abs": 0.0,
    "expected_growth_pct": 0.0,
    "risk_new_cases_county": 0.0,
    "risk_score": 0.045000000000000005
  },
  {
    "county_fips": "32003",
    "county": "Clark County",
    "state": "NV",
    "week": "2026-03-07",
    "cumulative_cases": 0.0,
    "new_cases_week": 0.0,
    "state_abbr": "NV",
    "centroid_lat": 36.21413,
    "centroid_lon": -115.014398,
    "horizon_weeks": 1,
    "forecast_week": "2026-03-14",
    "expected_growth_abs": 0.0,
    "expected_growth_pct": 0.0,
    "risk_new_cases_county": 0.0,
    "risk_score": 0.07599999999999996
  },
  {
    "county_fips": "32031",
    "county": "Washoe County",
    "state": "NV",
    "week": "2026-03-07",
    "cumulative_cases": 0.0,
    "new_cases_week": 0.0,
    "state_abbr": "NV",
    "centroid_lat": 40.73132,
    "centroid_lon": -119.663269,
    "horizon_weeks": 1,
    "forecast_week": "2026-03-14",
    "expected_growth_abs": 0.0,
    "expected_growth_pct": 0.0,
    "risk_new_cases_county": 0.0,
    "risk_score": 0.07599999999999996
  },
  {
    "county_fips": "34003",
    "county": "Bergen County",
    "state": "NJ",
    "week": "2026-03-07",
    "cumulative_cases": 0.0,
    "new_cases_week": 0.0,
    "state_abbr": "NJ",
    "centroid_lat": 40.959698,
    "centroid_lon": -74.074727,
    "horizon_weeks": 1,
    "forecast_week": "2026-03-14",
    "expected_growth_abs": 0.0,
    "expected_growth_pct": 0.0,
    "risk_new_cases_county": 0.0,
    "risk_score": 0.05950000000000003
  },
  {
    "county_fips": "34017",
    "county": "Hudson County",
    "state": "NJ",
    "week": "2026-03-07",
    "cumulative_cases": 0.0,
    "new_cases_week": 0.0,
    "state_abbr": "NJ",
    "centroid_lat": 40.731375,
    "centroid_lon": -74.078601,
    "horizon_weeks": 1,
    "forecast_week": "2026-03-14",
    "expected_growth_abs": 0.0,
    "expected_growth_pct": 0.0,
    "risk_new_cases_county": 0.0,
    "risk_score": 0.05950000000000003
  },
  {
    "county_fips": "34029",
    "county": "Ocean County",
    "state": "NJ",
    "week": "2026-03-07",
    "cumulative_cases": 0.0,
    "new_cases_week": 0.0,
    "state_abbr": "NJ",
    "centroid_lat": 39.865669,
    "centroid_lon": -74.258864,
    "horizon_weeks": 1,
    "forecast_week": "2026-03-14",
    "expected_growth_abs": 0.0,
    "expected_growth_pct": 0.0,
    "risk_new_cases_county": 0.0,
    "risk_score": 0.05950000000000003
  },
  {
    "county_fips": "34031",
    "county": "Passaic County",
    "state": "NJ",
    "week": "2026-03-07",
    "cumulative_cases": 0.0,
    "new_cases_week": 0.0,
    "state_abbr": "NJ",
    "centroid_lat": 41.036655,
    "centroid_lon": -74.299408,
    "horizon_weeks": 1,
    "forecast_week": "2026-03-14",
    "expected_growth_abs": 0.0,
    "expected_growth_pct": 0.0,
    "risk_new_cases_county": 0.0,
    "risk_score": 0.05950000000000003
  },
  {
    "county_fips": "35005",
    "county": "Chaves County",
    "state": "NM",
    "week": "2026-03-07",
    "cumulative_cases": 0.0,
    "new_cases_week": 0.0,
    "state_abbr": "NM",
    "centroid_lat": 33.361604,
    "centroid_lon": -104.469837,
    "horizon_weeks": 1,
    "forecast_week": "2026-03-14",
    "expected_growth_abs": 0.0,
    "expected_growth_pct": 0.0,
    "risk_new_cases_county": 0.0,
    "risk_score": 0.03599999999999994
  },
  {
    "county_fips": "35009",
    "county": "Curry County",
    "state": "NM",
    "week": "2026-03-07",
    "cumulative_cases": 0.0,
    "new_cases_week": 0.0,
    "state_abbr": "NM",
    "centroid_lat": 34.572984,
    "centroid_lon": -103.346055,
    "horizon_weeks": 1,
    "forecast_week": "2026-03-14",
    "expected_growth_abs": 0.0,
    "expected_growth_pct": 0.0,
    "risk_new_cases_county": 0.0,
    "risk_score": 0.03599999999999994
  },
  {
    "county_fips": "35013",
    "county": "Do\u00f1a Ana County",
    "state": "NM",
    "week": "2026-03-07",
    "cumulative_cases": 0.0,
    "new_cases_week": 0.0,
    "state_abbr": "NM",
    "centroid_lat": 32.349919,
    "centroid_lon": -106.834968,
    "horizon_weeks": 1,
    "forecast_week": "2026-03-14",
    "expected_growth_abs": 0.0,
    "expected_growth_pct": 0.0,
    "risk_new_cases_county": 0.0,
    "risk_score": 0.03599999999999994
  },
  {
    "county_fips": "35015",
    "county": "Eddy County",
    "state": "NM",
    "week": "2026-03-07",
    "cumulative_cases": 0.0,
    "new_cases_week": 0.0,
    "state_abbr": "NM",
    "centroid_lat": 32.457835,
    "centroid_lon": -104.306434,
    "horizon_weeks": 1,
    "forecast_week": "2026-03-14",
    "expected_growth_abs": 0.0,
    "expected_growth_pct": 0.0,
    "risk_new_cases_county": 0.0,
    "risk_score": 0.03599999999999994
  },
  {
    "county_fips": "35023",
    "county": "Hidalgo County",
    "state": "NM",
    "week": "2026-03-07",
    "cumulative_cases": 0.0,
    "new_cases_week": 0.0,
    "state_abbr": "NM",
    "centroid_lat": 31.898052,
    "centroid_lon": -108.751929,
    "horizon_weeks": 1,
    "forecast_week": "2026-03-14",
    "expected_growth_abs": 0.0,
    "expected_growth_pct": 0.0,
    "risk_new_cases_county": 0.0,
    "risk_score": 0.03599999999999994
  },
  {
    "county_fips": "35025",
    "county": "Lea County",
    "state": "NM",
    "week": "2026-03-07",
    "cumulative_cases": 0.0,
    "new_cases_week": 0.0,
    "state_abbr": "NM",
    "centroid_lat": 32.795687,
    "centroid_lon": -103.413271,
    "horizon_weeks": 1,
    "forecast_week": "2026-03-14",
    "expected_growth_abs": 0.0,
    "expected_growth_pct": 0.0,
    "risk_new_cases_county": 0.0,
    "risk_score": 0.03599999999999994
  },
  {
    "county_fips": "35029",
    "county": "Luna County",
    "state": "NM",
    "week": "2026-03-07",
    "cumulative_cases": 0.0,
    "new_cases_week": 0.0,
    "state_abbr": "NM",
    "centroid_lat": 32.184523,
    "centroid_lon": -107.747191,
    "horizon_weeks": 1,
    "forecast_week": "2026-03-14",
    "expected_growth_abs": 0.0,
    "expected_growth_pct": 0.0,
    "risk_new_cases_county": 0.0,
    "risk_score": 0.03599999999999994
  },
  {
    "county_fips": "35043",
    "county": "Sandoval County",
    "state": "NM",
    "week": "2026-03-07",
    "cumulative_cases": 0.0,
    "new_cases_week": 0.0,
    "state_abbr": "NM",
    "centroid_lat": 35.685091,
    "centroid_lon": -106.883119,
    "horizon_weeks": 1,
    "forecast_week": "2026-03-14",
    "expected_growth_abs": 0.0,
    "expected_growth_pct": 0.0,
    "risk_new_cases_county": 0.0,
    "risk_score": 0.03599999999999994
  },
  {
    "county_fips": "35045",
    "county": "San Juan County",
    "state": "NM",
    "week": "2026-03-07",
    "cumulative_cases": 0.0,
    "new_cases_week": 0.0,
    "state_abbr": "NM",
    "centroid_lat": 36.511624,
    "centroid_lon": -108.324578,
    "horizon_weeks": 1,
    "forecast_week": "2026-03-14",
    "expected_growth_abs": 0.0,
    "expected_growth_pct": 0.0,
    "risk_new_cases_county": 0.0,
    "risk_score": 0.03599999999999994
  },
  {
    "county_fips": "35049",
    "county": "Santa Fe County",
    "state": "NM",
    "week": "2026-03-07",
    "cumulative_cases": 0.0,
    "new_cases_week": 0.0,
    "state_abbr": "NM",
    "centroid_lat": 35.514531,
    "centroid_lon": -105.963972,
    "horizon_weeks": 1,
    "forecast_week": "2026-03-14",
    "expected_growth_abs": 0.0,
    "expected_growth_pct": 0.0,
    "risk_new_cases_county": 0.0,
    "risk_score": 0.03599999999999994
  },
  {
    "county_fips": "36061",
    "county": "New York County",
    "state": "NY",
    "week": "2026-03-07",
    "cumulative_cases": 0.0,
    "new_cases_week": 0.0,
    "state_abbr": "NY",
    "centroid_lat": 40.776642,
    "centroid_lon": -73.970187,
    "horizon_weeks": 1,
    "forecast_week": "2026-03-14",
    "expected_growth_abs": 0.0,
    "expected_growth_pct": 0.0,
    "risk_new_cases_county": 0.0,
    "risk_score": 0.011500000000000059
  },
  {
    "county_fips": "36069",
    "county": "Ontario County",
    "state": "NY",
    "week": "2026-03-07",
    "cumulative_cases": 0.0,
    "new_cases_week": 0.0,
    "state_abbr": "NY",
    "centroid_lat": 42.856357,
    "centroid_lon": -77.303497,
    "horizon_weeks": 1,
    "forecast_week": "2026-03-14",
    "expected_growth_abs": 0.0,
    "expected_growth_pct": 0.0,
    "risk_new_cases_county": 0.0,
    "risk_score": 0.011500000000000059
  },
  {
    "county_fips": "36071",
    "county": "Orange County",
    "state": "NY",
    "week": "2026-03-07",
    "cumulative_cases": 0.0,
    "new_cases_week": 0.0,
    "state_abbr": "NY",
    "centroid_lat": 41.40241,
    "centroid_lon": -74.306252,
    "horizon_weeks": 1,
    "forecast_week": "2026-03-14",
    "expected_growth_abs": 0.0,
    "expected_growth_pct": 0.0,
    "risk_new_cases_county": 0.0,
    "risk_score": 0.011500000000000059
  },
  {
    "county_fips": "36079",
    "county": "Putnam County",
    "state": "NY",
    "week": "2026-03-07",
    "cumulative_cases": 0.0,
    "new_cases_week": 0.0,
    "state_abbr": "NY",
    "centroid_lat": 41.427907,
    "centroid_lon": -73.743861,
    "horizon_weeks": 1,
    "forecast_week": "2026-03-14",
    "expected_growth_abs": 0.0,
    "expected_growth_pct": 0.0,
    "risk_new_cases_county": 0.0,
    "risk_score": 0.011500000000000059
  },
  {
    "county_fips": "36087",
    "county": "Rockland County",
    "state": "NY",
    "week": "2026-03-07",
    "cumulative_cases": 0.0,
    "new_cases_week": 0.0,
    "state_abbr": "NY",
    "centroid_lat": 41.154628,
    "centroid_lon": -74.024662,
    "horizon_weeks": 1,
    "forecast_week": "2026-03-14",
    "expected_growth_abs": 0.0,
    "expected_growth_pct": 0.0,
    "risk_new_cases_county": 0.0,
    "risk_score": 0.011500000000000059
  },
  {
    "county_fips": "36103",
    "county": "Suffolk County",
    "state": "NY",
    "week": "2026-03-07",
    "cumulative_cases": 0.0,
    "new_cases_week": 0.0,
    "state_abbr": "NY",
    "centroid_lat": 40.943554,
    "centroid_lon": -72.692218,
    "horizon_weeks": 1,
    "forecast_week": "2026-03-14",
    "expected_growth_abs": 0.0,
    "expected_growth_pct": 0.0,
    "risk_new_cases_county": 0.0,
    "risk_score": 0.011500000000000059
  },
  {
    "county_fips": "37021",
    "county": "Buncombe County",
    "state": "NC",
    "week": "2026-03-07",
    "cumulative_cases": 0.0,
    "new_cases_week": 0.0,
    "state_abbr": "NC",
    "centroid_lat": 35.609371,
    "centroid_lon": -82.530423,
    "horizon_weeks": 1,
    "forecast_week": "2026-03-14",
    "expected_growth_abs": 0.0,
    "expected_growth_pct": 0.0,
    "risk_new_cases_county": 0.0,
    "risk_score": 0.04449999999999989
  },
  {
    "county_fips": "37023",
    "county": "Burke County",
    "state": "NC",
    "week": "2026-03-07",
    "cumulative_cases": 0.0,
    "new_cases_week": 0.0,
    "state_abbr": "NC",
    "centroid_lat": 35.746182,
    "centroid_lon": -81.70618,
    "horizon_weeks": 1,
    "forecast_week": "2026-03-14",
    "expected_growth_abs": 0.0,
    "expected_growth_pct": 0.0,
    "risk_new_cases_county": 0.0,
    "risk_score": 0.04449999999999989
  },
  {
    "county_fips": "37025",
    "county": "Cabarrus County",
    "state": "NC",
    "week": "2026-03-07",
    "cumulative_cases": 0.0,
    "new_cases_week": 0.0,
    "state_abbr": "NC",
    "centroid_lat": 35.388346,
    "centroid_lon": -80.552728,
    "horizon_weeks": 1,
    "forecast_week": "2026-03-14",
    "expected_growth_abs": 0.0,
    "expected_growth_pct": 0.0,
    "risk_new_cases_county": 0.0,
    "risk_score": 0.04449999999999989
  },
  {
    "county_fips": "37081",
    "county": "Guilford County",
    "state": "NC",
    "week": "2026-03-07",
    "cumulative_cases": 0.0,
    "new_cases_week": 0.0,
    "state_abbr": "NC",
    "centroid_lat": 36.079065,
    "centroid_lon": -79.788665,
    "horizon_weeks": 1,
    "forecast_week": "2026-03-14",
    "expected_growth_abs": 0.0,
    "expected_growth_pct": 0.0,
    "risk_new_cases_county": 0.0,
    "risk_score": 0.04449999999999989
  },
  {
    "county_fips": "37101",
    "county": "Johnston County",
    "state": "NC",
    "week": "2026-03-07",
    "cumulative_cases": 0.0,
    "new_cases_week": 0.0,
    "state_abbr": "NC",
    "centroid_lat": 35.513419,
    "centroid_lon": -78.367348,
    "horizon_weeks": 1,
    "forecast_week": "2026-03-14",
    "expected_growth_abs": 0.0,
    "expected_growth_pct": 0.0,
    "risk_new_cases_county": 0.0,
    "risk_score": 0.04449999999999989
  },
  {
    "county_fips": "37109",
    "county": "Lincoln County",
    "state": "NC",
    "week": "2026-03-07",
    "cumulative_cases": 0.0,
    "new_cases_week": 0.0,
    "state_abbr": "NC",
    "centroid_lat": 35.488491,
    "centroid_lon": -81.226893,
    "horizon_weeks": 1,
    "forecast_week": "2026-03-14",
    "expected_growth_abs": 0.0,
    "expected_growth_pct": 0.0,
    "risk_new_cases_county": 0.0,
    "risk_score": 0.04449999999999989
  },
  {
    "county_fips": "37119",
    "county": "Mecklenburg County",
    "state": "NC",
    "week": "2026-03-07",
    "cumulative_cases": 0.0,
    "new_cases_week": 0.0,
    "state_abbr": "NC",
    "centroid_lat": 35.246862,
    "centroid_lon": -80.833832,
    "horizon_weeks": 1,
    "forecast_week": "2026-03-14",
    "expected_growth_abs": 0.0,
    "expected_growth_pct": 0.0,
    "risk_new_cases_county": 0.0,
    "risk_score": 0.04449999999999989
  },
  {
    "county_fips": "37127",
    "county": "Nash County",
    "state": "NC",
    "week": "2026-03-07",
    "cumulative_cases": 0.0,
    "new_cases_week": 0.0,
    "state_abbr": "NC",
    "centroid_lat": 35.965945,
    "centroid_lon": -77.987555,
    "horizon_weeks": 1,
    "forecast_week": "2026-03-14",
    "expected_growth_abs": 0.0,
    "expected_growth_pct": 0.0,
    "risk_new_cases_county": 0.0,
    "risk_score": 0.04449999999999989
  },
  {
    "county_fips": "37149",
    "county": "Polk County",
    "state": "NC",
    "week": "2026-03-07",
    "cumulative_cases": 0.0,
    "new_cases_week": 0.0,
    "state_abbr": "NC",
    "centroid_lat": 35.277901,
    "centroid_lon": -82.167621,
    "horizon_weeks": 1,
    "forecast_week": "2026-03-14",
    "expected_growth_abs": 0.0,
    "expected_growth_pct": 0.0,
    "risk_new_cases_county": 0.0,
    "risk_score": 0.04449999999999989
  },
  {
    "county_fips": "37161",
    "county": "Rutherford County",
    "state": "NC",
    "week": "2026-03-07",
    "cumulative_cases": 0.0,
    "new_cases_week": 0.0,
    "state_abbr": "NC",
    "centroid_lat": 35.402747,
    "centroid_lon": -81.919582,
    "horizon_weeks": 1,
    "forecast_week": "2026-03-14",
    "expected_growth_abs": 0.0,
    "expected_growth_pct": 0.0,
    "risk_new_cases_county": 0.0,
    "risk_score": 0.04449999999999989
  },
  {
    "county_fips": "37179",
    "county": "Union County",
    "state": "NC",
    "week": "2026-03-07",
    "cumulative_cases": 0.0,
    "new_cases_week": 0.0,
    "state_abbr": "NC",
    "centroid_lat": 34.99182,
    "centroid_lon": -80.530426,
    "horizon_weeks": 1,
    "forecast_week": "2026-03-14",
    "expected_growth_abs": 0.0,
    "expected_growth_pct": 0.0,
    "risk_new_cases_county": 0.0,
    "risk_score": 0.04449999999999989
  },
  {
    "county_fips": "38013",
    "county": "Burke County",
    "state": "ND",
    "week": "2026-03-07",
    "cumulative_cases": 0.0,
    "new_cases_week": 0.0,
    "state_abbr": "ND",
    "centroid_lat": 48.786453,
    "centroid_lon": -102.520087,
    "horizon_weeks": 1,
    "forecast_week": "2026-03-14",
    "expected_growth_abs": 0.0,
    "expected_growth_pct": 0.0,
    "risk_new_cases_county": 0.0,
    "risk_score": 0.085
  },
  {
    "county_fips": "38017",
    "county": "Cass County",
    "state": "ND",
    "week": "2026-03-07",
    "cumulative_cases": 0.0,
    "new_cases_week": 0.0,
    "state_abbr": "ND",
    "centroid_lat": 46.927003,
    "centroid_lon": -97.252375,
    "horizon_weeks": 1,
    "forecast_week": "2026-03-14",
    "expected_growth_abs": 0.0,
    "expected_growth_pct": 0.0,
    "risk_new_cases_county": 0.0,
    "risk_score": 0.085
  },
  {
    "county_fips": "38035",
    "county": "Grand Forks County",
    "state": "ND",
    "week": "2026-03-07",
    "cumulative_cases": 0.0,
    "new_cases_week": 0.0,
    "state_abbr": "ND",
    "centroid_lat": 47.926003,
    "centroid_lon": -97.450851,
    "horizon_weeks": 1,
    "forecast_week": "2026-03-14",
    "expected_growth_abs": 0.0,
    "expected_growth_pct": 0.0,
    "risk_new_cases_county": 0.0,
    "risk_score": 0.085
  },
  {
    "county_fips": "38067",
    "county": "Pembina County",
    "state": "ND",
    "week": "2026-03-07",
    "cumulative_cases": 0.0,
    "new_cases_week": 0.0,
    "state_abbr": "ND",
    "centroid_lat": 48.766896,
    "centroid_lon": -97.545405,
    "horizon_weeks": 1,
    "forecast_week": "2026-03-14",
    "expected_growth_abs": 0.0,
    "expected_growth_pct": 0.0,
    "risk_new_cases_county": 0.0,
    "risk_score": 0.085
  },
  {
    "county_fips": "38097",
    "county": "Traill County",
    "state": "ND",
    "week": "2026-03-07",
    "cumulative_cases": 0.0,
    "new_cases_week": 0.0,
    "state_abbr": "ND",
    "centroid_lat": 47.446271,
    "centroid_lon": -97.164636,
    "horizon_weeks": 1,
    "forecast_week": "2026-03-14",
    "expected_growth_abs": 0.0,
    "expected_growth_pct": 0.0,
    "risk_new_cases_county": 0.0,
    "risk_score": 0.085
  },
  {
    "county_fips": "38099",
    "county": "Walsh County",
    "state": "ND",
    "week": "2026-03-07",
    "cumulative_cases": 0.0,
    "new_cases_week": 0.0,
    "state_abbr": "ND",
    "centroid_lat": 48.376979,
    "centroid_lon": -97.72223,
    "horizon_weeks": 1,
    "forecast_week": "2026-03-14",
    "expected_growth_abs": 0.0,
    "expected_growth_pct": 0.0,
    "risk_new_cases_county": 0.0,
    "risk_score": 0.085
  },
  {
    "county_fips": "38105",
    "county": "Williams County",
    "state": "ND",
    "week": "2026-03-07",
    "cumulative_cases": 0.0,
    "new_cases_week": 0.0,
    "state_abbr": "ND",
    "centroid_lat": 48.355765,
    "centroid_lon": -103.501333,
    "horizon_weeks": 1,
    "forecast_week": "2026-03-14",
    "expected_growth_abs": 0.0,
    "expected_growth_pct": 0.0,
    "risk_new_cases_county": 0.0,
    "risk_score": 0.085
  },
  {
    "county_fips": "39003",
    "county": "Allen County",
    "state": "OH",
    "week": "2026-03-07",
    "cumulative_cases": 0.0,
    "new_cases_week": 0.0,
    "state_abbr": "OH",
    "centroid_lat": 40.771627,
    "centroid_lon": -84.106103,
    "horizon_weeks": 1,
    "forecast_week": "2026-03-14",
    "expected_growth_abs": 0.0,
    "expected_growth_pct": 0.0,
    "risk_new_cases_county": 0.0,
    "risk_score": 0.07950000000000003
  },
  {
    "county_fips": "39007",
    "county": "Ashtabula County",
    "state": "OH",
    "week": "2026-03-07",
    "cumulative_cases": 0.0,
    "new_cases_week": 0.0,
    "state_abbr": "OH",
    "centroid_lat": 41.906637,
    "centroid_lon": -80.745592,
    "horizon_weeks": 1,
    "forecast_week": "2026-03-14",
    "expected_growth_abs": 0.0,
    "expected_growth_pct": 0.0,
    "risk_new_cases_county": 0.0,
    "risk_score": 0.07950000000000003
  },
  {
    "county_fips": "39035",
    "county": "Cuyahoga County",
    "state": "OH",
    "week": "2026-03-07",
    "cumulative_cases": 0.0,
    "new_cases_week": 0.0,
    "state_abbr": "OH",
    "centroid_lat": 41.555037,
    "centroid_lon": -81.604957,
    "horizon_weeks": 1,
    "forecast_week": "2026-03-14",
    "expected_growth_abs": 0.0,
    "expected_growth_pct": 0.0,
    "risk_new_cases_county": 0.0,
    "risk_score": 0.07950000000000003
  },
  {
    "county_fips": "39039",
    "county": "Defiance County",
    "state": "OH",
    "week": "2026-03-07",
    "cumulative_cases": 0.0,
    "new_cases_week": 0.0,
    "state_abbr": "OH",
    "centroid_lat": 41.321679,
    "centroid_lon": -84.486433,
    "horizon_weeks": 1,
    "forecast_week": "2026-03-14",
    "expected_growth_abs": 0.0,
    "expected_growth_pct": 0.0,
    "risk_new_cases_county": 0.0,
    "risk_score": 0.07950000000000003
  },
  {
    "county_fips": "39049",
    "county": "Franklin County",
    "state": "OH",
    "week": "2026-03-07",
    "cumulative_cases": 0.0,
    "new_cases_week": 0.0,
    "state_abbr": "OH",
    "centroid_lat": 39.969875,
    "centroid_lon": -83.009086,
    "horizon_weeks": 1,
    "forecast_week": "2026-03-14",
    "expected_growth_abs": 0.0,
    "expected_growth_pct": 0.0,
    "risk_new_cases_county": 0.0,
    "risk_score": 0.07950000000000003
  },
  {
    "county_fips": "39075",
    "county": "Holmes County",
    "state": "OH",
    "week": "2026-03-07",
    "cumulative_cases": 0.0,
    "new_cases_week": 0.0,
    "state_abbr": "OH",
    "centroid_lat": 40.565597,
    "centroid_lon": -81.930001,
    "horizon_weeks": 1,
    "forecast_week": "2026-03-14",
    "expected_growth_abs": 0.0,
    "expected_growth_pct": 0.0,
    "risk_new_cases_county": 0.0,
    "risk_score": 0.07950000000000003
  },
  {
    "county_fips": "39083",
    "county": "Knox County",
    "state": "OH",
    "week": "2026-03-07",
    "cumulative_cases": 0.0,
    "new_cases_week": 0.0,
    "state_abbr": "OH",
    "centroid_lat": 40.40362,
    "centroid_lon": -82.422393,
    "horizon_weeks": 1,
    "forecast_week": "2026-03-14",
    "expected_growth_abs": 0.0,
    "expected_growth_pct": 0.0,
    "risk_new_cases_county": 0.0,
    "risk_score": 0.07950000000000003
  },
  {
    "county_fips": "39119",
    "county": "Muskingum County",
    "state": "OH",
    "week": "2026-03-07",
    "cumulative_cases": 0.0,
    "new_cases_week": 0.0,
    "state_abbr": "OH",
    "centroid_lat": 39.966046,
    "centroid_lon": -81.943506,
    "horizon_weeks": 1,
    "forecast_week": "2026-03-14",
    "expected_growth_abs": 0.0,
    "expected_growth_pct": 0.0,
    "risk_new_cases_county": 0.0,
    "risk_score": 0.07950000000000003
  },
  {
    "county_fips": "40109",
    "county": "Oklahoma County",
    "state": "OK",
    "week": "2026-03-07",
    "cumulative_cases": 0.0,
    "new_cases_week": 0.0,
    "state_abbr": "OK",
    "centroid_lat": 35.554611,
    "centroid_lon": -97.409401,
    "horizon_weeks": 1,
    "forecast_week": "2026-03-14",
    "expected_growth_abs": 0.0,
    "expected_growth_pct": 0.0,
    "risk_new_cases_county": 0.0,
    "risk_score": 0.08349999999999995
  },
  {
    "county_fips": "41005",
    "county": "Clackamas County",
    "state": "OR",
    "week": "2026-03-07",
    "cumulative_cases": 0.0,
    "new_cases_week": 0.0,
    "state_abbr": "OR",
    "centroid_lat": 45.160493,
    "centroid_lon": -122.195127,
    "horizon_weeks": 1,
    "forecast_week": "2026-03-14",
    "expected_growth_abs": 0.0,
    "expected_growth_pct": 0.0,
    "risk_new_cases_county": 0.0,
    "risk_score": 0.08950000000000002
  },
  {
    "county_fips": "41043",
    "county": "Linn County",
    "state": "OR",
    "week": "2026-03-07",
    "cumulative_cases": 0.0,
    "new_cases_week": 0.0,
    "state_abbr": "OR",
    "centroid_lat": 44.488898,
    "centroid_lon": -122.537208,
    "horizon_weeks": 1,
    "forecast_week": "2026-03-14",
    "expected_growth_abs": 0.0,
    "expected_growth_pct": 0.0,
    "risk_new_cases_county": 0.0,
    "risk_score": 0.08950000000000002
  },
  {
    "county_fips": "41051",
    "county": "Multnomah County",
    "state": "OR",
    "week": "2026-03-07",
    "cumulative_cases": 0.0,
    "new_cases_week": 0.0,
    "state_abbr": "OR",
    "centroid_lat": 45.547711,
    "centroid_lon": -122.417363,
    "horizon_weeks": 1,
    "forecast_week": "2026-03-14",
    "expected_growth_abs": 0.0,
    "expected_growth_pct": 0.0,
    "risk_new_cases_county": 0.0,
    "risk_score": 0.08950000000000002
  },
  {
    "county_fips": "42017",
    "county": "Bucks County",
    "state": "PA",
    "week": "2026-03-07",
    "cumulative_cases": 0.0,
    "new_cases_week": 0.0,
    "state_abbr": "PA",
    "centroid_lat": 40.336887,
    "centroid_lon": -75.10706,
    "horizon_weeks": 1,
    "forecast_week": "2026-03-14",
    "expected_growth_abs": 0.0,
    "expected_growth_pct": 0.0,
    "risk_new_cases_county": 0.0,
    "risk_score": 0.06799999999999998
  },
  {
    "county_fips": "42029",
    "county": "Chester County",
    "state": "PA",
    "week": "2026-03-07",
    "cumulative_cases": 0.0,
    "new_cases_week": 0.0,
    "state_abbr": "PA",
    "centroid_lat": 39.974029,
    "centroid_lon": -75.749751,
    "horizon_weeks": 1,
    "forecast_week": "2026-03-14",
    "expected_growth_abs": 0.0,
    "expected_growth_pct": 0.0,
    "risk_new_cases_county": 0.0,
    "risk_score": 0.06799999999999998
  },
  {
    "county_fips": "42041",
    "county": "Cumberland County",
    "state": "PA",
    "week": "2026-03-07",
    "cumulative_cases": 0.0,
    "new_cases_week": 0.0,
    "state_abbr": "PA",
    "centroid_lat": 40.164805,
    "centroid_lon": -77.263442,
    "horizon_weeks": 1,
    "forecast_week": "2026-03-14",
    "expected_growth_abs": 0.0,
    "expected_growth_pct": 0.0,
    "risk_new_cases_county": 0.0,
    "risk_score": 0.06799999999999998
  },
  {
    "county_fips": "42049",
    "county": "Erie County",
    "state": "PA",
    "week": "2026-03-07",
    "cumulative_cases": 0.0,
    "new_cases_week": 0.0,
    "state_abbr": "PA",
    "centroid_lat": 42.117952,
    "centroid_lon": -80.096386,
    "horizon_weeks": 1,
    "forecast_week": "2026-03-14",
    "expected_growth_abs": 0.0,
    "expected_growth_pct": 0.0,
    "risk_new_cases_county": 0.0,
    "risk_score": 0.06799999999999998
  },
  {
    "county_fips": "42071",
    "county": "Lancaster County",
    "state": "PA",
    "week": "2026-03-07",
    "cumulative_cases": 0.0,
    "new_cases_week": 0.0,
    "state_abbr": "PA",
    "centroid_lat": 40.041992,
    "centroid_lon": -76.250198,
    "horizon_weeks": 1,
    "forecast_week": "2026-03-14",
    "expected_growth_abs": 0.0,
    "expected_growth_pct": 0.0,
    "risk_new_cases_county": 0.0,
    "risk_score": 0.06799999999999998
  },
  {
    "county_fips": "42091",
    "county": "Montgomery County",
    "state": "PA",
    "week": "2026-03-07",
    "cumulative_cases": 0.0,
    "new_cases_week": 0.0,
    "state_abbr": "PA",
    "centroid_lat": 40.209999,
    "centroid_lon": -75.370201,
    "horizon_weeks": 1,
    "forecast_week": "2026-03-14",
    "expected_growth_abs": 0.0,
    "expected_growth_pct": 0.0,
    "risk_new_cases_county": 0.0,
    "risk_score": 0.06799999999999998
  },
  {
    "county_fips": "42101",
    "county": "Philadelphia County",
    "state": "PA",
    "week": "2026-03-07",
    "cumulative_cases": 0.0,
    "new_cases_week": 0.0,
    "state_abbr": "PA",
    "centroid_lat": 40.009376,
    "centroid_lon": -75.133346,
    "horizon_weeks": 1,
    "forecast_week": "2026-03-14",
    "expected_growth_abs": 0.0,
    "expected_growth_pct": 0.0,
    "risk_new_cases_county": 0.0,
    "risk_score": 0.06799999999999998
  },
  {
    "county_fips": "44007",
    "county": "Providence County",
    "state": "RI",
    "week": "2026-03-07",
    "cumulative_cases": 0.0,
    "new_cases_week": 0.0,
    "state_abbr": "RI",
    "centroid_lat": 41.869768,
    "centroid_lon": -71.578625,
    "horizon_weeks": 1,
    "forecast_week": "2026-03-14",
    "expected_growth_abs": 0.0,
    "expected_growth_pct": 0.0,
    "risk_new_cases_county": 0.0,
    "risk_score": 0.025499999999999974
  },
  {
    "county_fips": "45085",
    "county": "Sumter County",
    "state": "SC",
    "week": "2026-03-07",
    "cumulative_cases": 0.0,
    "new_cases_week": 0.0,
    "state_abbr": "SC",
    "centroid_lat": 33.91614,
    "centroid_lon": -80.382376,
    "horizon_weeks": 1,
    "forecast_week": "2026-03-14",
    "expected_growth_abs": 0.0,
    "expected_growth_pct": 0.0,
    "risk_new_cases_county": 0.0,
    "risk_score": 0.06699999999999988
  },
  {
    "county_fips": "46011",
    "county": "Brookings County",
    "state": "SD",
    "week": "2026-03-07",
    "cumulative_cases": 0.0,
    "new_cases_week": 0.0,
    "state_abbr": "SD",
    "centroid_lat": 44.376675,
    "centroid_lon": -96.797797,
    "horizon_weeks": 1,
    "forecast_week": "2026-03-14",
    "expected_growth_abs": 0.0,
    "expected_growth_pct": 0.0,
    "risk_new_cases_county": 0.0,
    "risk_score": 0.08400000000000006
  },
  {
    "county_fips": "46019",
    "county": "Butte County",
    "state": "SD",
    "week": "2026-03-07",
    "cumulative_cases": 0.0,
    "new_cases_week": 0.0,
    "state_abbr": "SD",
    "centroid_lat": 44.896226,
    "centroid_lon": -103.501436,
    "horizon_weeks": 1,
    "forecast_week": "2026-03-14",
    "expected_growth_abs": 0.0,
    "expected_growth_pct": 0.0,
    "risk_new_cases_county": 0.0,
    "risk_score": 0.08400000000000006
  },
  {
    "county_fips": "46051",
    "county": "Grant County",
    "state": "SD",
    "week": "2026-03-07",
    "cumulative_cases": 0.0,
    "new_cases_week": 0.0,
    "state_abbr": "SD",
    "centroid_lat": 45.172637,
    "centroid_lon": -96.772261,
    "horizon_weeks": 1,
    "forecast_week": "2026-03-14",
    "expected_growth_abs": 0.0,
    "expected_growth_pct": 0.0,
    "risk_new_cases_county": 0.0,
    "risk_score": 0.08400000000000006
  },
  {
    "county_fips": "46083",
    "county": "Lincoln County",
    "state": "SD",
    "week": "2026-03-07",
    "cumulative_cases": 0.0,
    "new_cases_week": 0.0,
    "state_abbr": "SD",
    "centroid_lat": 43.279422,
    "centroid_lon": -96.722288,
    "horizon_weeks": 1,
    "forecast_week": "2026-03-14",
    "expected_growth_abs": 0.0,
    "expected_growth_pct": 0.0,
    "risk_new_cases_county": 0.0,
    "risk_score": 0.08400000000000006
  },
  {
    "county_fips": "46093",
    "county": "Meade County",
    "state": "SD",
    "week": "2026-03-07",
    "cumulative_cases": 0.0,
    "new_cases_week": 0.0,
    "state_abbr": "SD",
    "centroid_lat": 44.605282,
    "centroid_lon": -102.714169,
    "horizon_weeks": 1,
    "forecast_week": "2026-03-14",
    "expected_growth_abs": 0.0,
    "expected_growth_pct": 0.0,
    "risk_new_cases_county": 0.0,
    "risk_score": 0.08400000000000006
  },
  {
    "county_fips": "46103",
    "county": "Pennington County",
    "state": "SD",
    "week": "2026-03-07",
    "cumulative_cases": 0.0,
    "new_cases_week": 0.0,
    "state_abbr": "SD",
    "centroid_lat": 44.002349,
    "centroid_lon": -102.823801,
    "horizon_weeks": 1,
    "forecast_week": "2026-03-14",
    "expected_growth_abs": 0.0,
    "expected_growth_pct": 0.0,
    "risk_new_cases_county": 0.0,
    "risk_score": 0.08400000000000006
  },
  {
    "county_fips": "48003",
    "county": "Andrews County",
    "state": "TX",
    "week": "2026-03-07",
    "cumulative_cases": 0.0,
    "new_cases_week": 0.0,
    "state_abbr": "TX",
    "centroid_lat": 32.312258,
    "centroid_lon": -102.640206,
    "horizon_weeks": 1,
    "forecast_week": "2026-03-14",
    "expected_growth_abs": 0.0,
    "expected_growth_pct": 0.0,
    "risk_new_cases_county": 0.0,
    "risk_score": 0.05400000000000006
  },
  {
    "county_fips": "48013",
    "county": "Atascosa County",
    "state": "TX",
    "week": "2026-03-07",
    "cumulative_cases": 0.0,
    "new_cases_week": 0.0,
    "state_abbr": "TX",
    "centroid_lat": 28.891478,
    "centroid_lon": -98.535381,
    "horizon_weeks": 1,
    "forecast_week": "2026-03-14",
    "expected_growth_abs": 0.0,
    "expected_growth_pct": 0.0,
    "risk_new_cases_county": 0.0,
    "risk_score": 0.05400000000000006
  },
  {
    "county_fips": "48017",
    "county": "Bailey County",
    "state": "TX",
    "week": "2026-03-07",
    "cumulative_cases": 0.0,
    "new_cases_week": 0.0,
    "state_abbr": "TX",
    "centroid_lat": 34.067521,
    "centroid_lon": -102.830345,
    "horizon_weeks": 1,
    "forecast_week": "2026-03-14",
    "expected_growth_abs": 0.0,
    "expected_growth_pct": 0.0,
    "risk_new_cases_county": 0.0,
    "risk_score": 0.05400000000000006
  },
  {
    "county_fips": "48019",
    "county": "Bandera County",
    "state": "TX",
    "week": "2026-03-07",
    "cumulative_cases": 0.0,
    "new_cases_week": 0.0,
    "state_abbr": "TX",
    "centroid_lat": 29.756389,
    "centroid_lon": -99.248285,
    "horizon_weeks": 1,
    "forecast_week": "2026-03-14",
    "expected_growth_abs": 0.0,
    "expected_growth_pct": 0.0,
    "risk_new_cases_county": 0.0,
    "risk_score": 0.05400000000000006
  },
  {
    "county_fips": "48027",
    "county": "Bell County",
    "state": "TX",
    "week": "2026-03-07",
    "cumulative_cases": 0.0,
    "new_cases_week": 0.0,
    "state_abbr": "TX",
    "centroid_lat": 31.037009,
    "centroid_lon": -97.479635,
    "horizon_weeks": 1,
    "forecast_week": "2026-03-14",
    "expected_growth_abs": 0.0,
    "expected_growth_pct": 0.0,
    "risk_new_cases_county": 0.0,
    "risk_score": 0.05400000000000006
  },
  {
    "county_fips": "48029",
    "county": "Bexar County",
    "state": "TX",
    "week": "2026-03-07",
    "cumulative_cases": 0.0,
    "new_cases_week": 0.0,
    "state_abbr": "TX",
    "centroid_lat": 29.448671,
    "centroid_lon": -98.520147,
    "horizon_weeks": 1,
    "forecast_week": "2026-03-14",
    "expected_growth_abs": 0.0,
    "expected_growth_pct": 0.0,
    "risk_new_cases_county": 0.0,
    "risk_score": 0.05400000000000006
  },
  {
    "county_fips": "48033",
    "county": "Borden County",
    "state": "TX",
    "week": "2026-03-07",
    "cumulative_cases": 0.0,
    "new_cases_week": 0.0,
    "state_abbr": "TX",
    "centroid_lat": 32.73859,
    "centroid_lon": -101.439199,
    "horizon_weeks": 1,
    "forecast_week": "2026-03-14",
    "expected_growth_abs": 0.0,
    "expected_growth_pct": 0.0,
    "risk_new_cases_county": 0.0,
    "risk_score": 0.05400000000000006
  },
  {
    "county_fips": "48039",
    "county": "Brazoria County",
    "state": "TX",
    "week": "2026-03-07",
    "cumulative_cases": 0.0,
    "new_cases_week": 0.0,
    "state_abbr": "TX",
    "centroid_lat": 29.167817,
    "centroid_lon": -95.434647,
    "horizon_weeks": 1,
    "forecast_week": "2026-03-14",
    "expected_growth_abs": 0.0,
    "expected_growth_pct": 0.0,
    "risk_new_cases_county": 0.0,
    "risk_score": 0.05400000000000006
  },
  {
    "county_fips": "48043",
    "county": "Brewster County",
    "state": "TX",
    "week": "2026-03-07",
    "cumulative_cases": 0.0,
    "new_cases_week": 0.0,
    "state_abbr": "TX",
    "centroid_lat": 29.808997,
    "centroid_lon": -103.252458,
    "horizon_weeks": 1,
    "forecast_week": "2026-03-14",
    "expected_growth_abs": 0.0,
    "expected_growth_pct": 0.0,
    "risk_new_cases_county": 0.0,
    "risk_score": 0.05400000000000006
  },
  {
    "county_fips": "48049",
    "county": "Brown County",
    "state": "TX",
    "week": "2026-03-07",
    "cumulative_cases": 0.0,
    "new_cases_week": 0.0,
    "state_abbr": "TX",
    "centroid_lat": 31.764137,
    "centroid_lon": -98.998456,
    "horizon_weeks": 1,
    "forecast_week": "2026-03-14",
    "expected_growth_abs": 0.0,
    "expected_growth_pct": 0.0,
    "risk_new_cases_county": 0.0,
    "risk_score": 0.05400000000000006
  },
  {
    "county_fips": "48065",
    "county": "Carson County",
    "state": "TX",
    "week": "2026-03-07",
    "cumulative_cases": 0.0,
    "new_cases_week": 0.0,
    "state_abbr": "TX",
    "centroid_lat": 35.405496,
    "centroid_lon": -101.355356,
    "horizon_weeks": 1,
    "forecast_week": "2026-03-14",
    "expected_growth_abs": 0.0,
    "expected_growth_pct": 0.0,
    "risk_new_cases_county": 0.0,
    "risk_score": 0.05400000000000006
  },
  {
    "county_fips": "48079",
    "county": "Cochran County",
    "state": "TX",
    "week": "2026-03-07",
    "cumulative_cases": 0.0,
    "new_cases_week": 0.0,
    "state_abbr": "TX",
    "centroid_lat": 33.60844,
    "centroid_lon": -102.830449,
    "horizon_weeks": 1,
    "forecast_week": "2026-03-14",
    "expected_growth_abs": 0.0,
    "expected_growth_pct": 0.0,
    "risk_new_cases_county": 0.0,
    "risk_score": 0.05400000000000006
  },
  {
    "county_fips": "48085",
    "county": "Collin County",
    "state": "TX",
    "week": "2026-03-07",
    "cumulative_cases": 0.0,
    "new_cases_week": 0.0,
    "state_abbr": "TX",
    "centroid_lat": 33.194482,
    "centroid_lon": -96.579428,
    "horizon_weeks": 1,
    "forecast_week": "2026-03-14",
    "expected_growth_abs": 0.0,
    "expected_growth_pct": 0.0,
    "risk_new_cases_county": 0.0,
    "risk_score": 0.05400000000000006
  },
  {
    "county_fips": "48111",
    "county": "Dallam County",
    "state": "TX",
    "week": "2026-03-07",
    "cumulative_cases": 0.0,
    "new_cases_week": 0.0,
    "state_abbr": "TX",
    "centroid_lat": 36.28637,
    "centroid_lon": -102.59402,
    "horizon_weeks": 1,
    "forecast_week": "2026-03-14",
    "expected_growth_abs": 0.0,
    "expected_growth_pct": 0.0,
    "risk_new_cases_county": 0.0,
    "risk_score": 0.05400000000000006
  },
  {
    "county_fips": "48113",
    "county": "Dallas County",
    "state": "TX",
    "week": "2026-03-07",
    "cumulative_cases": 0.0,
    "new_cases_week": 0.0,
    "state_abbr": "TX",
    "centroid_lat": 32.766987,
    "centroid_lon": -96.778424,
    "horizon_weeks": 1,
    "forecast_week": "2026-03-14",
    "expected_growth_abs": 0.0,
    "expected_growth_pct": 0.0,
    "risk_new_cases_county": 0.0,
    "risk_score": 0.05400000000000006
  },
  {
    "county_fips": "48115",
    "county": "Dawson County",
    "state": "TX",
    "week": "2026-03-07",
    "cumulative_cases": 0.0,
    "new_cases_week": 0.0,
    "state_abbr": "TX",
    "centroid_lat": 32.742528,
    "centroid_lon": -101.948771,
    "horizon_weeks": 1,
    "forecast_week": "2026-03-14",
    "expected_growth_abs": 0.0,
    "expected_growth_pct": 0.0,
    "risk_new_cases_county": 0.0,
    "risk_score": 0.05400000000000006
  },
  {
    "county_fips": "48121",
    "county": "Denton County",
    "state": "TX",
    "week": "2026-03-07",
    "cumulative_cases": 0.0,
    "new_cases_week": 0.0,
    "state_abbr": "TX",
    "centroid_lat": 33.205132,
    "centroid_lon": -97.12114,
    "horizon_weeks": 1,
    "forecast_week": "2026-03-14",
    "expected_growth_abs": 0.0,
    "expected_growth_pct": 0.0,
    "risk_new_cases_county": 0.0,
    "risk_score": 0.05400000000000006
  },
  {
    "county_fips": "48133",
    "county": "Eastland County",
    "state": "TX",
    "week": "2026-03-07",
    "cumulative_cases": 0.0,
    "new_cases_week": 0.0,
    "state_abbr": "TX",
    "centroid_lat": 32.324645,
    "centroid_lon": -98.83656,
    "horizon_weeks": 1,
    "forecast_week": "2026-03-14",
    "expected_growth_abs": 0.0,
    "expected_growth_pct": 0.0,
    "risk_new_cases_county": 0.0,
    "risk_score": 0.05400000000000006
  },
  {
    "county_fips": "48135",
    "county": "Ector County",
    "state": "TX",
    "week": "2026-03-07",
    "cumulative_cases": 0.0,
    "new_cases_week": 0.0,
    "state_abbr": "TX",
    "centroid_lat": 31.865301,
    "centroid_lon": -102.542507,
    "horizon_weeks": 1,
    "forecast_week": "2026-03-14",
    "expected_growth_abs": 0.0,
    "expected_growth_pct": 0.0,
    "risk_new_cases_county": 0.0,
    "risk_score": 0.05400000000000006
  },
  {
    "county_fips": "48141",
    "county": "El Paso County",
    "state": "TX",
    "week": "2026-03-07",
    "cumulative_cases": 0.0,
    "new_cases_week": 0.0,
    "state_abbr": "TX",
    "centroid_lat": 31.766456,
    "centroid_lon": -106.24152,
    "horizon_weeks": 1,
    "forecast_week": "2026-03-14",
    "expected_growth_abs": 0.0,
    "expected_growth_pct": 0.0,
    "risk_new_cases_county": 0.0,
    "risk_score": 0.05400000000000006
  },
  {
    "county_fips": "48143",
    "county": "Erath County",
    "state": "TX",
    "week": "2026-03-07",
    "cumulative_cases": 0.0,
    "new_cases_week": 0.0,
    "state_abbr": "TX",
    "centroid_lat": 32.236207,
    "centroid_lon": -98.218336,
    "horizon_weeks": 1,
    "forecast_week": "2026-03-14",
    "expected_growth_abs": 0.0,
    "expected_growth_pct": 0.0,
    "risk_new_cases_county": 0.0,
    "risk_score": 0.05400000000000006
  },
  {
    "county_fips": "48147",
    "county": "Fannin County",
    "state": "TX",
    "week": "2026-03-07",
    "cumulative_cases": 0.0,
    "new_cases_week": 0.0,
    "state_abbr": "TX",
    "centroid_lat": 33.591161,
    "centroid_lon": -96.104988,
    "horizon_weeks": 1,
    "forecast_week": "2026-03-14",
    "expected_growth_abs": 0.0,
    "expected_growth_pct": 0.0,
    "risk_new_cases_county": 0.0,
    "risk_score": 0.05400000000000006
  },
  {
    "county_fips": "48157",
    "county": "Fort Bend County",
    "state": "TX",
    "week": "2026-03-07",
    "cumulative_cases": 0.0,
    "new_cases_week": 0.0,
    "state_abbr": "TX",
    "centroid_lat": 29.526602,
    "centroid_lon": -95.771015,
    "horizon_weeks": 1,
    "forecast_week": "2026-03-14",
    "expected_growth_abs": 0.0,
    "expected_growth_pct": 0.0,
    "risk_new_cases_county": 0.0,
    "risk_score": 0.05400000000000006
  },
  {
    "county_fips": "48163",
    "county": "Frio County",
    "state": "TX",
    "week": "2026-03-07",
    "cumulative_cases": 0.0,
    "new_cases_week": 0.0,
    "state_abbr": "TX",
    "centroid_lat": 28.869383,
    "centroid_lon": -99.109005,
    "horizon_weeks": 1,
    "forecast_week": "2026-03-14",
    "expected_growth_abs": 0.0,
    "expected_growth_pct": 0.0,
    "risk_new_cases_county": 0.0,
    "risk_score": 0.05400000000000006
  },
  {
    "county_fips": "48165",
    "county": "Gaines County",
    "state": "TX",
    "week": "2026-03-07",
    "cumulative_cases": 0.0,
    "new_cases_week": 0.0,
    "state_abbr": "TX",
    "centroid_lat": 32.743942,
    "centroid_lon": -102.631561,
    "horizon_weeks": 1,
    "forecast_week": "2026-03-14",
    "expected_growth_abs": 0.0,
    "expected_growth_pct": 0.0,
    "risk_new_cases_county": 0.0,
    "risk_score": 0.05400000000000006
  },
  {
    "county_fips": "48169",
    "county": "Garza County",
    "state": "TX",
    "week": "2026-03-07",
    "cumulative_cases": 0.0,
    "new_cases_week": 0.0,
    "state_abbr": "TX",
    "centroid_lat": 33.183792,
    "centroid_lon": -101.301134,
    "horizon_weeks": 1,
    "forecast_week": "2026-03-14",
    "expected_growth_abs": 0.0,
    "expected_growth_pct": 0.0,
    "risk_new_cases_county": 0.0,
    "risk_score": 0.05400000000000006
  },
  {
    "county_fips": "48189",
    "county": "Hale County",
    "state": "TX",
    "week": "2026-03-07",
    "cumulative_cases": 0.0,
    "new_cases_week": 0.0,
    "state_abbr": "TX",
    "centroid_lat": 34.068436,
    "centroid_lon": -101.822888,
    "horizon_weeks": 1,
    "forecast_week": "2026-03-14",
    "expected_growth_abs": 0.0,
    "expected_growth_pct": 0.0,
    "risk_new_cases_county": 0.0,
    "risk_score": 0.05400000000000006
  },
  {
    "county_fips": "48197",
    "county": "Hardeman County",
    "state": "TX",
    "week": "2026-03-07",
    "cumulative_cases": 0.0,
    "new_cases_week": 0.0,
    "state_abbr": "TX",
    "centroid_lat": 34.289904,
    "centroid_lon": -99.745697,
    "horizon_weeks": 1,
    "forecast_week": "2026-03-14",
    "expected_growth_abs": 0.0,
    "expected_growth_pct": 0.0,
    "risk_new_cases_county": 0.0,
    "risk_score": 0.05400000000000006
  },
  {
    "county_fips": "48201",
    "county": "Harris County",
    "state": "TX",
    "week": "2026-03-07",
    "cumulative_cases": 0.0,
    "new_cases_week": 0.0,
    "state_abbr": "TX",
    "centroid_lat": 29.857273,
    "centroid_lon": -95.393037,
    "horizon_weeks": 1,
    "forecast_week": "2026-03-14",
    "expected_growth_abs": 0.0,
    "expected_growth_pct": 0.0,
    "risk_new_cases_county": 0.0,
    "risk_score": 0.05400000000000006
  },
  {
    "county_fips": "48203",
    "county": "Harrison County",
    "state": "TX",
    "week": "2026-03-07",
    "cumulative_cases": 0.0,
    "new_cases_week": 0.0,
    "state_abbr": "TX",
    "centroid_lat": 32.547991,
    "centroid_lon": -94.374434,
    "horizon_weeks": 1,
    "forecast_week": "2026-03-14",
    "expected_growth_abs": 0.0,
    "expected_growth_pct": 0.0,
    "risk_new_cases_county": 0.0,
    "risk_score": 0.05400000000000006
  },
  {
    "county_fips": "48209",
    "county": "Hays County",
    "state": "TX",
    "week": "2026-03-07",
    "cumulative_cases": 0.0,
    "new_cases_week": 0.0,
    "state_abbr": "TX",
    "centroid_lat": 30.061225,
    "centroid_lon": -98.029267,
    "horizon_weeks": 1,
    "forecast_week": "2026-03-14",
    "expected_growth_abs": 0.0,
    "expected_growth_pct": 0.0,
    "risk_new_cases_county": 0.0,
    "risk_score": 0.05400000000000006
  },
  {
    "county_fips": "48219",
    "county": "Hockley County",
    "state": "TX",
    "week": "2026-03-07",
    "cumulative_cases": 0.0,
    "new_cases_week": 0.0,
    "state_abbr": "TX",
    "centroid_lat": 33.605932,
    "centroid_lon": -102.343398,
    "horizon_weeks": 1,
    "forecast_week": "2026-03-14",
    "expected_growth_abs": 0.0,
    "expected_growth_pct": 0.0,
    "risk_new_cases_county": 0.0,
    "risk_score": 0.05400000000000006
  },
  {
    "county_fips": "48229",
    "county": "Hudspeth County",
    "state": "TX",
    "week": "2026-03-07",
    "cumulative_cases": 0.0,
    "new_cases_week": 0.0,
    "state_abbr": "TX",
    "centroid_lat": 31.450868,
    "centroid_lon": -105.377549,
    "horizon_weeks": 1,
    "forecast_week": "2026-03-14",
    "expected_growth_abs": 0.0,
    "expected_growth_pct": 0.0,
    "risk_new_cases_county": 0.0,
    "risk_score": 0.05400000000000006
  },
  {
    "county_fips": "48259",
    "county": "Kendall County",
    "state": "TX",
    "week": "2026-03-07",
    "cumulative_cases": 0.0,
    "new_cases_week": 0.0,
    "state_abbr": "TX",
    "centroid_lat": 29.943525,
    "centroid_lon": -98.709269,
    "horizon_weeks": 1,
    "forecast_week": "2026-03-14",
    "expected_growth_abs": 0.0,
    "expected_growth_pct": 0.0,
    "risk_new_cases_county": 0.0,
    "risk_score": 0.05400000000000006
  },
  {
    "county_fips": "48277",
    "county": "Lamar County",
    "state": "TX",
    "week": "2026-03-07",
    "cumulative_cases": 0.0,
    "new_cases_week": 0.0,
    "state_abbr": "TX",
    "centroid_lat": 33.667263,
    "centroid_lon": -95.570348,
    "horizon_weeks": 1,
    "forecast_week": "2026-03-14",
    "expected_growth_abs": 0.0,
    "expected_growth_pct": 0.0,
    "risk_new_cases_county": 0.0,
    "risk_score": 0.05400000000000006
  },